,City,Cloudiness,Country,Date,Humidity,Latitude,Longitude,Max Temperature,Wind Speed
0,Rikitea,39,PF,2019-09-26,71,-23.12,-134.97,22.14,4.7
1,Poiana,2,RO,2019-09-26,96,44.69,22.98,8.54,2.99
2,Kaitangata,45,NZ,2019-09-26,53,-46.28,169.85,14.44,6.71
3,Mar del Plata,100,AR,2019-09-26,43,-46.43,-67.52,12.84,7.65
4,Talnakh,0,RU,2019-09-26,86,69.49,88.39,1.0,4.0
5,Arraial do Cabo,100,BR,2019-09-26,91,-22.97,-42.02,19.44,1.87
6,Albany,1,US,2019-09-26,87,42.65,-73.75,14.44,3.1
7,Kodiak,90,US,2019-09-26,56,39.95,-94.76,21.0,4.1
8,Port Hardy,20,CA,2019-09-26,66,50.7,-127.42,12.0,3.1
9,Provideniya,90,RU,2019-09-26,93,64.42,-173.23,9.0,6.0
10,Pionki,55,PL,2019-09-26,87,51.47,21.44,14.44,1.79
11,Novosergiyevka,31,RU,2019-09-26,79,52.08,53.65,2.64,3.2
12,Mgandu,100,TZ,2019-09-26,65,-5.96,34.11,16.64,6.42
13,Bom Jesus,49,BR,2019-09-26,49,-9.08,-44.36,23.04,0.45
14,Ushuaia,75,AR,2019-09-26,56,-54.81,-68.31,7.0,3.28
15,Hilo,40,US,2019-09-26,62,19.71,-155.08,31.0,4.1
16,Bathsheba,20,BB,2019-09-26,78,13.22,-59.52,27.0,3.6
17,Fairbanks,90,US,2019-09-26,75,64.84,-147.72,6.0,2.1
18,Barcelos,13,BR,2019-09-26,94,-0.97,-62.93,23.14,0.5
19,Sorong,16,ID,2019-09-26,86,-0.86,131.25,27.34,2.62
20,Busselton,94,AU,2019-09-26,43,-33.64,115.35,19.44,2.9
21,Punta Arenas,0,CL,2019-09-26,49,-53.16,-70.91,8.0,7.2
22,Khatanga,100,RU,2019-09-26,94,71.98,102.47,0.54,3.97
23,Atuona,5,PF,2019-09-26,77,-9.8,-139.03,26.44,7.57
24,Oranjestad,20,AW,2019-09-26,79,12.52,-70.03,30.0,3.1
25,Tshikapa,0,CD,2019-09-26,88,-6.42,20.79,19.34,0.46
26,Mahebourg,75,MU,2019-09-26,94,-20.41,57.7,22.78,4.1
27,Laguna,75,BZ,2019-09-26,88,16.17,-88.94,27.0,0.59
28,Longyearbyen,75,NO,2019-09-26,86,78.22,15.63,3.0,4.6
29,Saskylakh,100,RU,2019-09-26,84,71.97,114.09,0.94,4.03
30,Lasa,0,CY,2019-09-26,82,34.92,32.53,21.0,3.6
31,Saraland,20,US,2019-09-26,78,30.82,-88.07,27.78,1.5
32,Hofn,100,IS,2019-09-26,97,64.25,-15.21,4.34,4.29
33,Tuktoyaktuk,75,CA,2019-09-26,81,69.44,-133.03,3.0,9.3
34,Hithadhoo,99,MV,2019-09-26,68,-0.6,73.08,28.54,3.99
35,Mtwara,0,TZ,2019-09-26,75,-10.28,40.18,20.04,4.11
36,Mount Isa,40,AU,2019-09-26,21,-20.73,139.49,32.0,2.6
37,Merauke,0,ID,2019-09-26,83,-8.49,140.4,25.84,11.08
38,Georgetown,0,GY,2019-09-26,94,6.8,-58.16,28.0,2.1
39,Kirakira,32,SB,2019-09-26,70,-10.46,161.92,29.04,2.63
40,Nikolskoye,90,RU,2019-09-26,81,59.7,30.79,8.33,2.0
41,Vaini,75,IN,2019-09-26,94,15.34,74.49,22.0,3.1
42,Cape Town,0,ZA,2019-09-26,82,-33.93,18.42,21.11,1.0
43,High Level,75,CA,2019-09-26,60,58.52,-117.13,6.0,3.6
44,Saint George,40,GR,2019-09-26,77,39.45,22.34,20.0,0.95
45,Dikson,99,RU,2019-09-26,89,73.51,80.55,1.04,6.03
46,Guerrero Negro,0,MX,2019-09-26,79,27.97,-114.04,19.54,4.24
47,Mumford,67,GH,2019-09-26,98,5.26,-0.76,22.34,1.67
48,Bani,17,YE,2019-09-26,80,16.02,42.93,30.54,2.59
49,Xichang,1,CN,2019-09-26,39,27.88,102.25,25.0,1.48
50,Faanui,100,PF,2019-09-26,79,-16.48,-151.75,26.54,6.72
51,Alyangula,0,AU,2019-09-26,62,-13.85,136.42,29.0,4.1
52,Numan,76,NG,2019-09-26,94,9.46,12.04,22.34,1.1
53,Miranda de Ebro,75,ES,2019-09-26,100,42.69,-2.95,17.78,1.5
54,Hobart,75,AU,2019-09-26,44,-42.88,147.33,16.0,7.7
55,Qaanaaq,100,GL,2019-09-26,96,77.48,-69.36,0.24,7.73
56,Riyadh,0,SA,2019-09-26,44,24.63,46.72,27.0,1.5
57,Castro,0,CL,2019-09-26,81,-42.48,-73.76,10.0,2.1
58,Fort Nelson,90,CA,2019-09-26,100,58.81,-122.69,2.0,4.1
59,Ushtobe,100,KZ,2019-09-26,30,45.25,77.98,19.64,7.51
60,Maceio,40,BR,2019-09-26,94,-9.67,-35.74,21.0,2.6
61,Cayenne,0,GF,2019-09-26,88,4.94,-52.33,25.0,1.95
62,Coquimbo,90,CL,2019-09-26,81,-29.95,-71.34,12.0,2.1
63,Upernavik,100,GL,2019-09-26,55,72.79,-56.15,4.24,4.03
64,Hermanus,26,ZA,2019-09-26,60,-34.42,19.24,21.11,1.34
65,Grand-Lahou,38,CI,2019-09-26,99,5.24,-5.0,22.34,0.95
66,Saint-Augustin,20,CA,2019-09-26,87,45.63,-73.98,13.0,2.1
67,Changji,0,CN,2019-09-26,38,32.07,116.17,27.14,2.66
68,Butaritari,0,KI,2019-09-26,55,3.07,172.79,29.64,2.92
69,Samana,0,EC,2019-09-26,96,0.12,-76.97,21.04,1.11
70,Tasiilaq,100,GL,2019-09-26,86,65.61,-37.64,3.0,8.7
71,Kapaa,75,US,2019-09-26,74,22.08,-159.32,30.0,6.2
72,Bethel,75,US,2019-09-26,71,60.79,-161.76,12.0,6.7
73,Shibetsu,40,JP,2019-09-26,68,44.15,142.46,20.0,1.0
74,Ilulissat,0,GL,2019-09-26,32,69.22,-51.1,5.0,4.6
75,Terekli-Mekteb,95,RU,2019-09-26,84,44.16,45.87,14.34,5.87
76,Staryy Nadym,100,RU,2019-09-26,97,65.61,72.68,2.04,4.43
77,Kloulklubed,75,PW,2019-09-26,74,7.04,134.26,29.0,5.1
78,Mataura,46,NZ,2019-09-26,80,-46.19,168.86,12.22,8.49
79,San Patricio,0,PY,2019-09-26,72,-26.98,-56.83,15.94,2.95
80,Carnarvon,0,ZA,2019-09-26,18,-30.97,22.13,10.24,2.32
81,Oum Hadjer,97,TD,2019-09-26,61,13.3,19.7,27.04,5.59
82,Sao Joao da Barra,100,BR,2019-09-26,97,-21.64,-41.05,18.74,0.98
83,Springdale,1,US,2019-09-26,100,36.19,-94.13,21.11,2.1
84,Omboue,100,GA,2019-09-26,87,-1.57,9.26,25.24,5.89
85,Tarko-Sale,96,RU,2019-09-26,94,64.92,77.78,2.22,1.34
86,Anchorage,1,US,2019-09-26,61,61.22,-149.89,10.0,0.12
87,Kahului,40,US,2019-09-26,62,20.89,-156.47,31.0,9.3
88,Grindavik,0,IS,2019-09-26,93,63.84,-22.43,14.0,2.1
89,Saint-Philippe,75,CA,2019-09-26,93,45.36,-73.48,13.0,3.1
90,Ust-Nera,100,RU,2019-09-26,71,64.57,143.24,-1.47,2.81
91,Vadodara,75,IN,2019-09-26,94,22.3,73.2,26.0,3.28
92,Paka,100,CF,2019-09-26,99,4.15,15.03,19.44,0.91
93,Gumrak,0,RU,2019-09-26,56,48.78,44.38,2.0,2.0
94,Constitucion,90,MX,2019-09-26,68,23.99,-104.67,18.0,3.6
95,Marfino,0,RU,2019-09-26,89,56.07,37.56,5.0,2.0
96,Chapleau,5,CA,2019-09-26,87,47.85,-83.4,6.0,2.1
97,Sept-Iles,90,CA,2019-09-26,93,50.2,-66.38,9.0,3.6
98,Yellowknife,20,CA,2019-09-26,69,62.45,-114.38,1.0,2.6
99,Mandan,1,US,2019-09-26,76,46.83,-100.89,14.0,5.1
100,Cabo San Lucas,5,MX,2019-09-26,74,22.89,-109.91,27.78,7.2
101,Port Augusta,0,AU,2019-09-26,68,-32.49,137.76,26.11,8.2
102,Puerto Suarez,100,BO,2019-09-26,63,-18.96,-57.8,22.64,0.54
103,Visnes,100,NO,2019-09-26,93,59.36,5.22,13.89,4.6
104,Tezu,0,IN,2019-09-26,63,27.93,96.16,26.04,1.38
105,Vandra,0,IT,2019-09-26,93,41.66,14.19,20.0,2.1
106,Ribeira Grande,0,PT,2019-09-26,89,38.52,-28.7,22.24,4.66
107,Rumonge,78,BI,2019-09-26,69,-3.97,29.44,18.94,0.64
108,Abu Samrah,0,SY,2019-09-26,87,35.3,37.18,16.84,1.96
109,Sambava,24,MG,2019-09-26,82,-14.27,50.17,19.04,1.61
110,Rabo de Peixe,40,PT,2019-09-26,88,37.8,-25.58,22.0,4.1
111,Guozhen,0,CN,2019-09-26,30,29.3,113.14,29.94,1.4
112,Dunedin,75,NZ,2019-09-26,55,-45.87,170.5,15.0,8.05
113,Cockburn Town,0,TC,2019-09-26,76,21.46,-71.14,28.44,4.7
114,New Norfolk,75,AU,2019-09-26,44,-42.78,147.06,16.0,7.7
115,Esperance,90,AU,2019-09-26,82,-33.86,121.89,15.0,3.6
116,Port Alfred,0,ZA,2019-09-26,56,-33.59,26.89,17.78,1.65
117,Vorkuta,21,RU,2019-09-26,88,67.5,64.04,-2.17,2.5
118,Klaksvik,100,FO,2019-09-26,81,62.23,-6.59,12.0,9.8
119,Norman Wells,20,CA,2019-09-26,64,65.28,-126.83,3.0,2.1
120,East London,0,ZA,2019-09-26,17,-33.02,27.91,18.14,2.24
121,Vila Velha,20,BR,2019-09-26,78,-3.71,-38.6,26.0,6.7
122,Sao Filipe,38,CV,2019-09-26,85,14.9,-24.5,25.24,5.09
123,North Platte,1,US,2019-09-26,60,41.12,-100.77,21.0,4.1
124,Tabuk,25,PH,2019-09-26,60,17.41,121.44,27.54,0.99
125,Victoria,75,BN,2019-09-26,70,5.28,115.24,31.0,2.1
126,Noumea,75,NC,2019-09-26,47,-22.28,166.46,27.0,5.1
127,Thompson,40,CA,2019-09-26,74,55.74,-97.86,1.0,2.1
128,Pisco,90,PE,2019-09-26,82,-13.71,-76.2,17.0,5.1
129,Jamestown,0,AU,2019-09-26,33,-33.21,138.6,21.84,6.71
130,Xuddur,92,SO,2019-09-26,79,4.12,43.89,21.74,5.3
131,Pembroke,1,CA,2019-09-26,81,45.82,-77.11,12.0,1.0
132,Inirida,29,CO,2019-09-26,94,3.87,-67.92,23.24,0.98
133,Necochea,97,AR,2019-09-26,90,-38.55,-58.74,6.11,3.15
134,Avarua,100,CK,2019-09-26,78,-21.21,-159.78,25.0,1.5
135,Yulara,0,AU,2019-09-26,16,-25.24,130.99,30.0,4.1
136,Mitu,0,IR,2019-09-26,57,36.2,46.09,10.04,1.78
137,Bloomingdale,1,US,2019-09-26,82,41.96,-88.08,17.22,2.92
138,Grand Gaube,75,MU,2019-09-26,94,-20.01,57.66,22.78,4.1
139,Ambon,33,FR,2019-09-26,93,47.55,-2.56,16.11,3.6
140,Chimbote,0,PE,2019-09-26,92,-9.08,-78.59,16.04,3.97
141,Ayan,0,IR,2019-09-26,49,38.23,44.7,7.84,2.01
142,Saldanha,0,PT,2019-09-26,80,41.42,-6.55,13.04,1.62
143,Bontang,85,ID,2019-09-26,76,0.12,117.47,28.24,1.45
144,Port Elizabeth,1,US,2019-09-26,77,39.31,-74.98,22.78,3.6
145,General Pico,97,AR,2019-09-26,58,-35.66,-63.75,20.24,8.18
146,Timmins,20,CA,2019-09-26,100,48.48,-81.33,7.0,1.5
147,Tucumcari,1,US,2019-09-26,36,35.17,-103.73,24.0,4.1
148,Pyryatyn,100,UA,2019-09-26,85,50.24,32.51,9.64,2.14
149,Cidreira,0,BR,2019-09-26,86,-30.17,-50.22,15.04,2.65
150,Hegang,63,CN,2019-09-26,49,47.34,130.28,22.34,1.92
151,Capao da Canoa,0,BR,2019-09-26,92,-29.75,-50.01,13.24,0.86
152,Clyde River,1,CA,2019-09-26,93,70.47,-68.59,2.0,2.1
153,Copiapo,0,CL,2019-09-26,71,-27.37,-70.33,13.0,1.5
154,Port Lincoln,55,AU,2019-09-26,75,-34.72,135.86,12.44,7.71
155,Manicore,31,BR,2019-09-26,64,-5.81,-61.3,26.44,0.75
156,Los Llanos de Aridane,90,ES,2019-09-26,69,28.66,-17.92,23.0,4.1
157,Esperantina,58,BR,2019-09-26,83,-3.89,-42.23,23.54,2.05
158,Poum,9,MK,2019-09-26,90,41.28,20.71,9.34,0.75
159,Airai,0,TL,2019-09-26,46,-8.93,125.41,30.24,2.42
160,Leningradskiy,100,RU,2019-09-26,85,69.38,178.42,1.64,7.04
161,Nome,1,US,2019-09-26,83,30.04,-94.42,27.78,2.7
162,Quelimane,75,MZ,2019-09-26,93,-17.88,36.89,18.0,2.6
163,Severo-Kurilsk,64,RU,2019-09-26,80,50.68,156.12,7.84,12.61
164,Geraldton,40,CA,2019-09-26,81,49.72,-86.95,9.0,5.1
165,Itarema,5,BR,2019-09-26,80,-2.92,-39.92,23.74,3.41
166,Bambous Virieux,75,MU,2019-09-26,94,-20.34,57.76,22.78,4.1
167,Araguaina,19,BR,2019-09-26,44,-7.19,-48.21,27.44,1.82
168,Tura,62,RU,2019-09-26,76,64.27,100.22,1.44,1.17
169,Banda Aceh,96,ID,2019-09-26,72,5.56,95.32,28.04,1.7
170,Belaya Gora,90,RU,2019-09-26,53,68.54,146.19,1.44,2.88
171,Tual,100,ID,2019-09-26,83,-5.67,132.75,25.74,8.17
172,Lavrentiya,100,RU,2019-09-26,98,65.58,-170.99,4.24,6.28
173,Klyuchi,69,RU,2019-09-26,47,52.25,79.17,7.84,3.75
174,Beringovskiy,100,RU,2019-09-26,79,63.05,179.32,8.14,3.56
175,Beyneu,93,KZ,2019-09-26,35,45.32,55.19,11.14,7.26
176,Lata,9,IN,2019-09-26,75,30.78,78.62,6.94,1.71
177,Pangody,100,RU,2019-09-26,96,65.85,74.49,1.84,5.77
178,Sitka,16,US,2019-09-26,79,37.17,-99.65,19.44,5.62
179,Presidente Dutra,0,BR,2019-09-26,68,-5.29,-44.49,24.34,0.62
180,Placido de Castro,24,BR,2019-09-26,79,-10.34,-67.19,23.24,1.37
181,Sola,53,TZ,2019-09-26,62,-3.17,33.8,20.34,4.47
182,Podor,100,MR,2019-09-26,63,16.65,-14.96,28.54,7.01
183,Imbituba,75,BR,2019-09-26,93,-28.24,-48.67,19.0,2.1
184,Mareeba,99,AU,2019-09-26,51,-16.99,145.42,30.56,7.2
185,Bluff,0,AU,2019-09-26,31,-23.58,149.07,28.54,3.02
186,Cleethorpes,77,GB,2019-09-26,87,53.56,-0.03,13.33,5.7
187,Morondava,15,MG,2019-09-26,72,-20.3,44.28,23.44,4.32
188,Porbandar,75,IN,2019-09-26,94,21.64,69.61,26.0,2.6
189,Nara,75,JP,2019-09-26,69,34.68,135.8,28.33,5.1
190,Avera,1,US,2019-09-26,74,33.19,-82.53,27.22,1.5
191,Aras,0,ES,2019-09-26,93,42.56,-2.36,14.44,1.5
192,Gaoua,30,BF,2019-09-26,97,10.33,-3.18,22.94,2.35
193,Mineiros,94,BR,2019-09-26,85,-17.57,-52.55,19.54,4.35
194,Bilma,0,NE,2019-09-26,8,18.69,12.92,29.04,3.79
195,Barrow,100,AR,2019-09-26,75,-38.31,-60.23,6.34,4.62
196,Hargeysa,21,SO,2019-09-26,74,9.56,44.06,20.14,10.34
197,Gizo,0,IL,2019-09-26,68,31.8,34.94,22.22,2.1
198,Varkkallai,40,IN,2019-09-26,83,8.73,76.71,26.0,1.5
199,Rio Grande,0,BR,2019-09-26,86,-32.03,-52.1,12.22,0.45
200,Zambezi,0,ZM,2019-09-26,69,-13.55,23.12,14.94,3.29
201,Gorizia,72,IT,2019-09-26,93,45.94,13.63,15.0,1.5
202,Linqiong,81,CN,2019-09-26,68,30.42,103.46,26.67,1.0
203,Rizhao,0,CN,2019-09-26,44,35.43,119.46,25.84,0.73
204,Kedrovyy,0,RU,2019-09-26,80,56.17,91.82,-1.0,1.0
205,Ancud,0,CL,2019-09-26,81,-41.87,-73.83,10.0,2.1
206,Harlingen,20,NL,2019-09-26,93,53.18,5.41,16.11,3.1
207,Mountain Home,1,US,2019-09-26,23,43.13,-115.69,23.0,6.2
208,Minggang,9,CN,2019-09-26,29,32.45,114.03,29.44,2.93
209,Jiaozhou,0,CN,2019-09-26,54,36.26,120.03,28.33,1.0
210,Kruisfontein,0,ZA,2019-09-26,19,-34.0,24.73,18.74,3.58
211,San Jeronimo,53,PE,2019-09-26,93,-13.65,-73.37,9.74,1.14
212,Mount Gambier,75,AU,2019-09-26,62,-37.83,140.78,13.0,9.3
213,Vardo,1,US,2019-09-26,77,39.62,-77.74,20.0,1.5
214,Dauriya,20,RU,2019-09-26,24,49.93,116.85,23.64,8.62
215,Akdepe,0,TM,2019-09-26,76,42.05,59.39,15.0,3.1
216,Aripuana,0,BR,2019-09-26,84,-9.17,-60.63,23.44,1.95
217,Gombe,99,NG,2019-09-26,81,10.28,11.16,22.64,1.05
218,Porto Novo,75,BR,2019-09-26,93,-23.68,-45.44,17.0,3.56
219,Monroe,1,US,2019-09-26,81,41.91,-83.4,16.11,1.97
220,Ramhormoz,0,IR,2019-09-26,83,31.28,49.6,26.0,1.0
221,Tornio,90,FI,2019-09-26,93,61.12,27.27,8.0,2.1
222,Sechura,4,PE,2019-09-26,90,-5.56,-80.82,17.04,3.97
223,Egvekinot,100,RU,2019-09-26,98,66.32,-179.17,-0.87,2.82
224,Ostrovnoy,100,RU,2019-09-26,93,68.05,39.51,3.24,4.45
225,Marzuq,21,YE,2019-09-26,51,14.4,46.47,22.44,1.37
226,Bouafle,75,FR,2019-09-26,87,48.96,1.9,15.0,4.6
227,New Plymouth,0,NZ,2019-09-26,77,-39.06,174.08,12.22,7.15
228,Torbay,90,CA,2019-09-26,93,47.66,-52.73,11.11,6.2
229,Rio Gallegos,0,AR,2019-09-26,52,-51.62,-69.22,7.0,3.81
230,Taoudenni,0,ML,2019-09-26,12,22.68,-3.98,33.14,2.23
231,Celestun,100,MX,2019-09-26,80,20.87,-90.4,28.24,8.46
232,Eston,90,CA,2019-09-26,93,51.15,-108.75,8.0,5.1
233,Ocean Springs,1,US,2019-09-26,74,30.41,-88.83,27.0,1.5
234,Ahipara,19,NZ,2019-09-26,75,-35.17,173.16,18.33,8.86
235,Malacky,0,SK,2019-09-26,87,48.43,17.02,15.0,1.5
236,Tomatlan,96,MX,2019-09-26,80,19.93,-105.25,27.64,8.5
237,Cherskiy,3,RU,2019-09-26,39,68.75,161.3,4.14,2.8
238,Vallenar,0,CL,2019-09-26,92,-28.58,-70.76,6.44,0.18
239,Ponta do Sol,100,BR,2019-09-26,97,-20.63,-46.0,16.74,0.89
240,Moyale,100,ET,2019-09-26,82,3.52,39.05,19.74,5.91
241,Beberibe,20,BR,2019-09-26,78,-4.18,-38.13,26.0,6.7
242,Bredasdorp,13,ZA,2019-09-26,75,-34.53,20.04,13.33,1.0
243,Quartucciu,0,IT,2019-09-26,82,39.25,9.18,22.0,4.6
244,Broome,32,GB,2019-09-26,87,52.47,1.45,13.89,5.1
245,Fenton,20,GB,2019-09-26,87,53.0,-2.16,13.33,4.1
246,Saint-Francois,40,FR,2019-09-26,93,46.42,3.91,12.0,1.5
247,Hokitika,34,NZ,2019-09-26,76,-42.72,170.96,11.84,7.72
248,Talcahuano,90,CL,2019-09-26,93,-36.72,-73.12,12.0,1.5
249,Ola,0,RU,2019-09-26,46,59.58,151.3,6.84,4.03
250,Lompoc,1,US,2019-09-26,73,34.64,-120.46,21.0,4.1
251,Bindura,0,ZW,2019-09-26,90,-17.3,31.33,4.94,1.16
252,Hervey Bay,1,AU,2019-09-26,44,-25.3,152.85,25.56,4.6
253,Auki,100,NG,2019-09-26,80,12.18,6.51,24.14,4.2
254,Madison,90,US,2019-09-26,76,43.07,-89.38,16.0,3.62
255,Olinda,90,AU,2019-09-26,55,-37.84,145.39,18.89,8.2
256,Padang,100,ID,2019-09-26,83,-0.92,100.36,26.04,3.52
257,Bell Ville,22,AR,2019-09-26,55,-32.63,-62.69,17.74,4.39
258,Vestmannaeyjar,100,IS,2019-09-26,92,63.44,-20.27,9.94,3.0
259,Ixtapa,90,MX,2019-09-26,74,20.71,-105.21,29.0,4.09
260,Talakan,57,RU,2019-09-26,59,50.29,130.28,17.04,5.02
261,Alcala de Henares,0,ES,2019-09-26,82,40.48,-3.36,20.0,1.0
262,Najran,0,SA,2019-09-26,43,17.54,44.22,23.0,2.1
263,Churapcha,6,RU,2019-09-26,65,62.0,132.43,7.44,5.7
264,Pontal do Parana,75,BR,2019-09-26,100,-25.67,-48.51,18.89,1.0
265,Nelson Bay,0,AU,2019-09-26,25,-32.72,152.14,27.22,7.2
266,Fatsa,40,TR,2019-09-26,93,41.03,37.5,19.0,0.5
267,Port Macquarie,20,AU,2019-09-26,25,-31.43,152.91,28.89,4.6
268,Saint-Leu,75,RE,2019-09-26,64,-21.15,55.28,23.0,2.1
269,Manggar,61,ID,2019-09-26,45,-2.88,108.27,32.44,4.45
270,Manaure,20,CO,2019-09-26,94,11.78,-72.45,24.0,1.5
271,San Carlos de Bariloche,0,AR,2019-09-26,53,-41.13,-71.31,11.0,2.1
272,Kisangani,100,CD,2019-09-26,95,0.52,25.21,21.04,0.65
273,Katete,99,UG,2019-09-26,95,-0.78,29.75,17.34,0.96
274,Vila Franca do Campo,40,PT,2019-09-26,88,37.72,-25.43,22.0,4.1
275,Enshi,0,CN,2019-09-26,62,30.29,109.48,20.74,1.19
276,Isangel,90,VU,2019-09-26,83,-19.55,169.27,21.0,5.1
277,Narsaq,0,GL,2019-09-26,64,60.91,-46.05,4.0,1.0
278,Orodara,0,BF,2019-09-26,88,10.98,-4.92,25.0,1.85
279,Carmelo,0,UY,2019-09-26,67,-34.0,-58.28,17.0,5.7
280,Machico,40,PT,2019-09-26,73,32.7,-16.77,21.0,4.1
281,Atar,0,MR,2019-09-26,15,20.52,-13.05,32.54,0.65
282,Taltal,59,CL,2019-09-26,90,-25.41,-70.49,9.74,1.5
283,Hasaki,75,JP,2019-09-26,65,35.73,140.83,28.33,1.5
284,Mollendo,0,PE,2019-09-26,84,-17.03,-72.02,15.54,4.42
285,Tomigusuku,40,JP,2019-09-26,70,26.18,127.67,31.0,6.2
286,The Valley,20,AI,2019-09-26,83,18.22,-63.06,29.0,1.0
287,Chapais,90,CA,2019-09-26,93,49.78,-74.86,8.0,4.1
288,Lebu,22,ET,2019-09-26,87,8.96,38.73,11.24,1.17
289,Whittlesea,0,AU,2019-09-26,51,-37.51,145.12,18.89,8.2
290,Tarkwa,67,GH,2019-09-26,99,5.31,-1.99,22.14,1.32
291,Cervo,15,BR,2019-09-26,93,-22.19,-46.24,13.94,0.93
292,Pevek,91,RU,2019-09-26,78,69.7,170.27,1.24,9.37
293,Salinopolis,3,BR,2019-09-26,81,-0.61,-47.36,27.34,7.98
294,Axim,99,GH,2019-09-26,92,4.87,-2.24,24.54,3.74
295,Biak,100,ID,2019-09-26,74,-0.91,122.88,22.84,1.66
296,Naze,100,NG,2019-09-26,97,5.43,7.07,23.24,2.0
297,Puerto Ayora,41,EC,2019-09-26,88,-0.74,-90.35,20.0,0.89
298,Zmeinogorsk,97,RU,2019-09-26,46,51.15,82.2,9.54,2.25
299,Severodvinsk,40,RU,2019-09-26,93,64.56,39.82,3.0,2.0
300,Bereznik,94,RU,2019-09-26,96,62.86,42.71,0.74,3.09
301,Aginskoye,93,RU,2019-09-26,65,51.11,114.54,18.64,1.0
302,Kibre Mengist,97,ET,2019-09-26,99,5.87,38.99,11.74,0.53
303,Ovsyanka,72,RU,2019-09-26,70,53.58,126.91,13.64,3.16
304,Fenoarivo,75,MG,2019-09-26,77,-18.93,47.44,15.0,4.6
305,Mala Tokmachka,0,UA,2019-09-26,57,47.53,35.9,9.0,2.0
306,Ambulu,22,ID,2019-09-26,89,-8.35,113.61,23.54,3.97
307,Dafeng,100,CN,2019-09-26,52,33.2,120.46,24.54,2.43
308,Shreveport,1,US,2019-09-26,58,32.52,-93.77,29.0,3.1
309,Namibe,0,AO,2019-09-26,86,-15.19,12.15,20.14,1.6
310,Adrar,0,DZ,2019-09-26,10,27.87,-0.29,29.0,2.6
311,Pangnirtung,34,CA,2019-09-26,32,66.15,-65.72,2.74,2.01
312,Moyeuvre-Grande,0,FR,2019-09-26,72,49.25,6.05,18.0,6.7
313,Viransehir,0,TR,2019-09-26,55,37.24,39.76,17.84,0.71
314,Den Helder,75,NL,2019-09-26,82,52.96,4.76,16.11,6.2
315,Bubaque,100,GW,2019-09-26,80,11.28,-15.83,27.54,4.07
316,Codrington,6,AU,2019-09-26,44,-28.95,153.24,28.0,6.2
317,Tiksi,100,RU,2019-09-26,89,71.64,128.87,1.74,1.19
318,Ekhabi,0,RU,2019-09-26,59,53.51,142.97,13.24,3.83
319,Beauly,75,GB,2019-09-26,93,57.48,-4.46,9.44,0.5
320,Barsovo,0,RU,2019-09-26,100,61.17,73.17,2.0,3.0
321,Richards Bay,0,ZA,2019-09-26,70,-28.77,32.06,16.84,7.58
322,Bereda,75,ES,2019-09-26,88,43.27,-7.54,18.0,5.7
323,Namatanai,14,PG,2019-09-26,70,-3.66,152.44,28.74,4.73
324,Santa Cruz,18,BR,2019-09-26,85,-6.22,-36.02,19.44,4.27
325,Mahibadhoo,87,MV,2019-09-26,67,3.78,72.97,28.34,3.72
326,Fortuna,1,US,2019-09-26,87,40.6,-124.16,16.67,3.6
327,Burla,100,RU,2019-09-26,51,53.34,78.33,7.24,4.06
328,Havre-Saint-Pierre,90,CA,2019-09-26,100,50.23,-63.6,8.0,5.7
329,Hanzhong,0,CN,2019-09-26,67,33.08,107.03,21.54,1.19
330,Normandin,20,CA,2019-09-26,87,48.84,-72.53,10.0,4.1
331,Luderitz,99,NA,2019-09-26,43,-26.65,15.16,21.0,2.1
332,Poopo,96,BO,2019-09-26,60,-18.38,-66.97,9.14,3.48
333,North Bend,75,US,2019-09-26,87,43.41,-124.22,16.67,7.2
334,Kurtamysh,45,RU,2019-09-26,83,54.91,64.43,1.24,2.31
335,Luoyang,15,CN,2019-09-26,39,34.66,112.42,25.34,2.87
336,Huangnihe,0,CN,2019-09-26,42,43.56,128.02,24.44,1.37
337,Koslan,37,RU,2019-09-26,97,63.46,48.9,0.44,3.21
338,Zheleznodorozhnyy,2,RU,2019-09-26,93,55.75,38.0,5.0,1.6
339,Kysyl-Syr,49,RU,2019-09-26,69,63.9,122.77,4.74,1.99
340,Wajima,20,JP,2019-09-26,65,37.4,136.9,25.0,2.1
341,Evans,1,US,2019-09-26,59,40.38,-104.69,26.0,2.1
342,Corowa,99,AU,2019-09-26,39,-36.0,146.39,21.67,5.1
343,Dublin,40,IE,2019-09-26,93,53.35,-6.26,11.11,3.6
344,Guarapari,75,BR,2019-09-26,94,-20.67,-40.5,22.0,1.5
345,Gorontalo,29,ID,2019-09-26,61,0.54,123.06,30.14,4.03
346,Nanortalik,0,GL,2019-09-26,73,60.14,-45.24,6.04,3.31
347,Providencia,100,CO,2019-09-26,90,1.24,-77.6,11.94,1.19
348,Chalons-en-Champagne,100,FR,2019-09-26,87,48.95,4.37,16.67,8.2
349,Raudeberg,100,NO,2019-09-26,58,61.99,5.14,15.56,8.7
350,Bonthe,100,SL,2019-09-26,91,7.53,-12.5,24.24,2.33
351,Hami,21,CN,2019-09-26,16,42.84,93.51,26.74,5.39
352,Lagoa,0,PT,2019-09-26,82,37.14,-8.45,19.44,4.42
353,Cap Malheureux,75,MU,2019-09-26,94,-19.98,57.61,22.78,4.1
354,Jalu,0,LY,2019-09-26,50,29.03,21.55,21.94,2.86
355,Santa Barbara,90,US,2019-09-26,68,34.42,-119.7,22.0,3.1
356,Arlit,0,NE,2019-09-26,10,18.74,7.39,31.54,5.68
357,Hambantota,75,LK,2019-09-26,100,6.12,81.12,23.0,1.0
358,Camacha,40,PT,2019-09-26,64,33.08,-16.33,21.0,5.1
359,Batagay,100,RU,2019-09-26,93,67.65,134.64,1.64,2.19
360,Khuzhir,100,RU,2019-09-26,96,53.19,107.35,2.64,4.73
361,Voi,57,KE,2019-09-26,89,-3.4,38.57,18.54,3.61
362,Hluti,0,SZ,2019-09-26,87,-27.22,31.62,7.74,1.38
363,Farafangana,61,MG,2019-09-26,97,-22.82,47.83,17.74,0.89
364,Quatre Cocos,75,MU,2019-09-26,94,-20.21,57.76,22.78,4.1
365,Srednekolymsk,94,RU,2019-09-26,51,67.46,153.71,1.74,2.15
366,Husavik,100,CA,2019-09-26,95,50.56,-96.99,6.67,1.34
367,San Cristobal,99,HN,2019-09-26,93,14.68,-86.92,20.24,3.33
368,Hovd,0,NO,2019-09-26,66,63.83,10.7,11.11,4.6
369,Ribas do Rio Pardo,11,BR,2019-09-26,70,-20.45,-53.76,20.24,2.62
370,Gat,40,SN,2019-09-26,94,14.69,-16.54,26.0,2.1
371,Verdun,40,FR,2019-09-26,93,49.16,5.39,17.78,1.5
372,Mecca,0,SA,2019-09-26,14,21.43,39.83,29.44,3.53
373,Taman,20,RU,2019-09-26,100,45.22,36.72,12.0,2.0
374,Dowa,53,CN,2019-09-26,36,31.0,94.93,3.94,0.21
375,Gilbues,25,BR,2019-09-26,34,-9.83,-45.34,25.74,2.71
376,Pokhara,100,NP,2019-09-26,81,28.21,83.99,13.64,1.13
377,Macaiba,40,BR,2019-09-26,88,-5.86,-35.35,24.0,1.5
378,Stonewall,90,CA,2019-09-26,87,50.13,-97.33,7.0,5.1
379,Pavlivka,57,UA,2019-09-26,90,48.13,39.54,6.24,2.46
380,Haines Junction,10,CA,2019-09-26,83,60.75,-137.51,-0.47,2.86
381,Pacific Grove,1,US,2019-09-26,72,36.62,-121.92,20.0,4.6
382,Tocopilla,70,CL,2019-09-26,82,-22.09,-70.2,13.54,0.57
383,Sorland,0,NO,2019-09-26,77,67.67,12.69,11.64,5.76
384,Lazaro Cardenas,20,MX,2019-09-26,60,28.39,-105.62,24.0,2.1
385,Emba,0,CY,2019-09-26,82,34.81,32.42,21.0,3.6
386,Vao,51,EE,2019-09-26,92,59.1,26.19,6.64,2.62
387,Kibuye,96,RW,2019-09-26,70,-2.07,29.35,19.54,1.24
388,Colwyn Bay,23,GB,2019-09-26,87,53.29,-3.71,14.0,8.2
389,Olga,90,US,2019-09-26,73,34.11,-118.17,23.0,3.1
390,Sao Gabriel da Cachoeira,12,BR,2019-09-26,89,-0.13,-67.09,24.04,0.53
391,Inuvik,90,CA,2019-09-26,69,68.36,-133.71,3.0,2.1
392,Erenhot,0,CN,2019-09-26,24,43.65,111.97,22.74,7.13
393,Pahrump,1,US,2019-09-26,36,36.21,-115.98,27.22,6.7
394,Acajutla,100,SV,2019-09-26,80,13.59,-89.83,28.24,4.5
395,Alofi,75,NU,2019-09-26,65,-19.06,-169.92,26.0,6.7
396,Yelanskiy,50,RU,2019-09-26,91,56.84,62.5,-0.27,3.44
397,Umarkot,73,PK,2019-09-26,60,25.37,69.74,31.14,3.39
398,Kulhudhuffushi,89,MV,2019-09-26,66,6.62,73.07,28.24,1.24
399,Kano,0,NG,2019-09-26,83,11.99,8.53,22.0,2.1
400,Broken Hill,16,AU,2019-09-26,12,-31.97,141.45,25.0,6.7
401,Effium,75,NG,2019-09-26,88,6.63,8.06,26.0,3.6
402,Kavieng,56,PG,2019-09-26,73,-2.57,150.8,29.14,4.88
403,Tongliao,0,CN,2019-09-26,34,43.61,122.27,26.14,6.77
404,Shitanjing,48,CN,2019-09-26,28,39.23,106.34,21.64,1.36
405,Shimoda,75,JP,2019-09-26,69,34.7,138.93,29.44,5.7
406,Swift Current,75,CA,2019-09-26,93,50.29,-107.8,7.0,2.1
407,Palmer,20,AU,2019-09-26,67,-34.85,139.16,20.56,8.7
408,Caravelas,19,BR,2019-09-26,87,-17.73,-39.27,22.94,4.86
409,Paraguacu Paulista,2,BR,2019-09-26,65,-22.41,-50.58,18.94,1.01
410,Lugovoy,100,RU,2019-09-26,84,59.72,65.88,0.24,4.02
411,Thinadhoo,77,MV,2019-09-26,73,0.53,72.93,28.34,4.85
412,Samarai,90,PG,2019-09-26,89,-10.62,150.67,24.94,3.27
413,Petukhovo,94,RU,2019-09-26,74,55.06,67.89,3.74,3.88
414,Inyonga,34,TZ,2019-09-26,64,-6.72,32.06,18.04,3.11
415,Mayor Pablo Lagerenza,20,PY,2019-09-26,42,-19.93,-60.77,22.14,1.74
416,Sao Jose da Coroa Grande,59,BR,2019-09-26,94,-8.9,-35.15,19.94,0.79
417,Nanakuli,75,US,2019-09-26,100,21.39,-158.15,29.0,2.6
418,Lockhart,100,AU,2019-09-26,17,-35.22,146.72,25.0,7.2
419,Miraflores,0,PE,2019-09-26,28,-16.39,-71.52,14.0,1.0
420,Fagersta,0,SE,2019-09-26,93,60.0,15.79,6.0,1.5
421,Ciudad Bolivar,0,VE,2019-09-26,71,8.12,-63.55,27.04,1.34
422,Raton,1,US,2019-09-26,32,36.9,-104.44,24.0,4.6
423,Praia da Vitoria,20,PT,2019-09-26,94,38.73,-27.07,21.0,4.22
424,Cairns,100,AU,2019-09-26,51,-16.92,145.77,30.56,7.2
425,West Bay,20,CA,2019-09-26,71,49.34,-123.21,15.0,7.7
426,Chuy,0,UY,2019-09-26,86,-33.69,-53.46,13.14,3.95
427,Rocha,0,UY,2019-09-26,94,-34.48,-54.34,8.04,1.44
428,Comodoro Rivadavia,0,AR,2019-09-26,58,-45.87,-67.48,13.0,5.7
429,Ibra,85,OM,2019-09-26,67,22.69,58.55,23.94,0.61
430,Hamilton,5,CA,2019-09-26,81,43.26,-79.87,16.11,2.1
431,Zhigansk,75,RU,2019-09-26,63,66.77,123.37,3.64,2.53
432,Zavodoukovsk,64,RU,2019-09-26,85,56.51,66.54,1.54,3.4
433,Camacupa,7,AO,2019-09-26,52,-12.02,17.48,16.64,2.57
434,Prado,35,CO,2019-09-26,62,3.75,-74.93,26.54,1.21
435,Touros,40,BR,2019-09-26,88,-5.2,-35.46,22.0,1.5
436,Salalah,40,OM,2019-09-26,83,17.01,54.1,26.0,1.5
437,Asosa,91,ET,2019-09-26,99,10.07,34.53,17.34,0.74
438,Lastoursville,100,GA,2019-09-26,97,-0.81,12.73,21.84,0.59
439,Ponta Delgada,40,PT,2019-09-26,88,37.73,-25.67,22.0,4.1
440,Inhambane,12,MZ,2019-09-26,90,-23.87,35.38,13.34,1.89
441,Tucano,67,BR,2019-09-26,87,-10.96,-38.79,19.74,2.35
442,Chingirlau,0,KZ,2019-09-26,66,51.09,54.08,4.14,3.21
443,Alice Springs,0,AU,2019-09-26,24,-23.7,133.88,28.0,3.1
444,Iqaluit,90,CA,2019-09-26,74,63.75,-68.52,4.0,11.8
445,Emerald,0,AU,2019-09-26,34,-23.53,148.16,28.33,4.6
446,Grand Bank,25,CA,2019-09-26,91,47.1,-55.77,12.64,3.61
447,Lengshuitan,25,CN,2019-09-26,31,26.41,111.6,29.94,2.68
448,Muros,75,ES,2019-09-26,100,42.77,-9.06,18.89,4.1
449,Labuhan,52,ID,2019-09-26,49,-2.54,115.51,33.54,0.74
450,Mutis,100,CO,2019-09-26,83,6.23,-77.4,26.34,3.78
451,Kangundo,75,KE,2019-09-26,82,-1.3,37.35,16.0,3.6
452,Atasu,100,KZ,2019-09-26,50,48.68,71.64,13.14,2.72
453,Alghero,20,IT,2019-09-26,88,40.56,8.32,17.0,0.5
454,Batagay-Alyta,91,RU,2019-09-26,72,67.8,130.41,-2.37,2.08
455,Chancay,90,PE,2019-09-26,87,-11.56,-77.27,16.0,5.1
456,Luau,93,CD,2019-09-26,49,-10.7,22.23,20.44,1.43
457,Coihaique,0,CL,2019-09-26,70,-45.58,-72.07,9.0,1.5
458,Maragogi,59,BR,2019-09-26,94,-9.01,-35.22,19.94,0.79
459,Salto,40,BR,2019-09-26,82,-23.2,-47.29,18.0,2.6
460,Hun,97,BE,2019-09-26,100,50.34,4.87,13.33,3.6
461,Khorixas,97,NA,2019-09-26,22,-20.37,14.96,19.04,3.75
462,Blythe,1,US,2019-09-26,57,33.61,-114.59,26.0,2.42
463,Alta Floresta,25,BR,2019-09-26,95,-9.87,-56.08,21.54,1.39
464,Shirokiy,15,RU,2019-09-26,86,53.87,39.17,1.11,2.12
465,Zhongshu,36,CN,2019-09-26,67,24.52,103.77,18.74,1.23
466,Cloquet,90,US,2019-09-26,81,46.72,-92.46,14.44,2.55
467,Aklavik,90,CA,2019-09-26,69,68.22,-135.01,3.0,2.1
468,Rock Sound,0,BS,2019-09-26,78,24.9,-76.2,26.64,6.42
469,Hohhot,0,CN,2019-09-26,42,40.81,111.65,18.0,1.0
470,Morant Bay,75,JM,2019-09-26,88,17.88,-76.41,27.0,8.2
471,Whitecourt,90,CA,2019-09-26,93,54.14,-115.68,3.0,4.6
472,Bandarbeyla,100,SO,2019-09-26,71,9.49,50.81,24.64,11.56
473,Tuzha,0,CN,2019-09-26,50,28.58,109.69,26.04,0.92
474,Dali,0,CN,2019-09-26,38,34.79,109.94,24.04,3.21
475,Agadir,90,MA,2019-09-26,93,30.42,-9.58,18.0,3.04
476,Zhuanghe,0,CN,2019-09-26,75,39.7,122.97,16.67,0.89
477,Lichinga,85,MZ,2019-09-26,80,-13.3,35.25,13.34,2.01
478,Westport,90,US,2019-09-26,100,41.14,-73.36,17.0,1.12
479,Amuntai,100,ID,2019-09-26,44,-2.42,115.25,35.94,0.46
480,Popondetta,43,PG,2019-09-26,85,-8.77,148.24,23.54,1.49
481,Tilichiki,63,RU,2019-09-26,71,60.47,166.1,7.34,5.35
482,Feleacu,75,RO,2019-09-26,93,46.71,23.62,14.0,3.1
483,Isla Vista,90,US,2019-09-26,68,34.41,-119.86,22.0,3.1
484,Half Moon Bay,1,US,2019-09-26,82,37.46,-122.43,23.0,4.1
485,Mogadishu,100,SO,2019-09-26,78,2.04,45.34,24.64,5.44
486,Wuwei,0,CN,2019-09-26,34,37.93,102.64,20.0,1.76
487,Korem,25,ET,2019-09-26,73,12.51,39.52,12.84,0.4
488,Graham,1,US,2019-09-26,51,33.11,-98.59,30.0,4.1
489,Kenai,1,US,2019-09-26,43,60.55,-151.26,11.0,4.1
490,Plouzane,45,FR,2019-09-26,87,48.38,-4.62,15.56,6.2
491,Keflavik,0,IS,2019-09-26,93,64.0,-22.56,14.0,2.1
492,Miquelon,71,PM,2019-09-26,90,47.1,-56.38,13.14,4.62
493,Canutama,0,BR,2019-09-26,65,-6.53,-64.38,26.04,1.06
494,Saquena,2,PE,2019-09-26,64,-4.67,-73.52,26.14,0.93
495,Eqbaliyeh,0,IR,2019-09-26,20,35.3,51.54,24.0,3.1
496,Bali Chak,100,IN,2019-09-26,94,22.37,87.55,23.74,0.84
497,Kununurra,3,AU,2019-09-26,43,-15.77,128.74,32.0,3.1
498,Anito,32,PH,2019-09-26,57,12.45,125.29,31.84,2.44
499,Itinga,53,BR,2019-09-26,83,-16.61,-41.77,18.84,1.48
500,Port-Gentil,100,GA,2019-09-26,86,-0.72,8.78,25.54,6.62
501,Margate,75,AU,2019-09-26,44,-43.03,147.26,16.0,7.7
502,Cururupu,0,BR,2019-09-26,96,-1.82,-44.87,22.74,1.19
503,Caucaia,20,BR,2019-09-26,78,-3.73,-38.66,26.0,6.7
504,Buraydah,0,SA,2019-09-26,35,26.33,43.97,23.0,2.75
505,Oranjemund,83,ZA,2019-09-26,39,-28.55,16.43,20.64,4.4
506,Faya,0,SA,2019-09-26,59,18.39,42.45,19.0,3.6
507,Chokurdakh,69,RU,2019-09-26,69,70.62,147.9,0.14,6.19
508,Les Cayes,62,HT,2019-09-26,76,18.19,-73.75,28.54,4.8
509,Deputatskiy,100,RU,2019-09-26,89,69.3,139.9,-5.57,1.79
510,Dhanaura,41,IN,2019-09-26,83,28.96,78.26,25.14,4.75
511,Anadyr,75,RU,2019-09-26,93,64.73,177.51,8.0,5.0
512,Aswan,0,EG,2019-09-26,30,24.09,32.9,24.04,2.74
513,Katobu,70,ID,2019-09-26,44,-4.94,122.53,32.34,3.17
514,Zhezkazgan,90,KZ,2019-09-26,50,47.8,67.71,13.0,1.0
515,San Quintin,0,PH,2019-09-26,67,17.54,120.52,29.94,2.27
516,Ambilobe,23,MG,2019-09-26,74,-13.19,49.05,20.04,1.84
517,Soyo,10,AO,2019-09-26,86,-6.13,12.37,24.24,3.84
518,Kitimat,75,CA,2019-09-26,87,54.02,-128.69,9.0,4.6
519,Vredendal,41,ZA,2019-09-26,41,-31.68,18.49,20.34,9.1
520,Mujiayingzi,80,CN,2019-09-26,21,42.12,118.78,22.24,5.08
521,Thohoyandou,0,ZA,2019-09-26,96,-22.97,30.46,5.14,1.14
522,Maldonado,0,UY,2019-09-26,87,-34.91,-54.96,11.0,3.1
523,Manhattan,90,US,2019-09-26,73,39.18,-96.57,23.33,5.94
524,Toora-Khem,69,RU,2019-09-26,70,52.47,96.11,6.04,1.18
525,Owo,100,NG,2019-09-26,99,7.2,5.59,22.44,1.4
526,Vermilion,90,CA,2019-09-26,93,53.35,-110.85,5.0,2.6
527,Hobyo,8,SO,2019-09-26,81,5.35,48.53,24.14,5.39
528,Liuzhou,0,CN,2019-09-26,49,24.32,109.41,27.14,1.94
529,Douentza,0,ML,2019-09-26,50,15.01,-2.95,28.74,3.1
530,Saint Cloud,90,US,2019-09-26,63,45.56,-94.16,17.22,2.1
531,Gazli,0,UZ,2019-09-26,23,40.13,63.45,22.44,1.42
532,Port Blair,98,IN,2019-09-26,77,11.67,92.75,27.94,3.08
533,Seymchan,30,RU,2019-09-26,43,62.93,152.39,1.74,1.33
534,San Borja,41,BO,2019-09-26,60,-14.86,-66.75,22.34,1.52
535,Yar-Sale,41,RU,2019-09-26,90,66.83,70.83,1.14,1.48
536,Katsuura,75,JP,2019-09-26,74,33.93,134.5,27.22,1.5
537,Stephenville Crossing,90,CA,2019-09-26,100,48.5,-58.44,10.0,1.5
538,Tral,22,IN,2019-09-26,80,33.93,75.11,16.64,1.32
539,Kizukuri,75,JP,2019-09-26,53,40.81,140.39,25.0,4.6
540,Tautira,20,PF,2019-09-26,62,-17.73,-149.15,30.0,3.1
541,Huntley,100,AU,2019-09-26,38,-33.37,149.13,19.44,5.76
542,Smithers,40,CA,2019-09-26,93,54.78,-127.17,5.0,2.6
543,Lisakovsk,11,KZ,2019-09-26,76,52.55,62.49,3.04,4.14
544,Myitkyina,67,MM,2019-09-26,66,25.38,97.4,26.24,1.14
545,Key Largo,20,US,2019-09-26,74,25.09,-80.45,27.22,3.6
546,Atakpame,100,TG,2019-09-26,93,7.53,1.13,21.94,1.06
547,Kodinsk,93,RU,2019-09-26,75,58.6,99.18,2.94,4.36
548,Horsham,99,AU,2019-09-26,80,-36.71,142.2,12.74,8.86
549,Linxia,0,CN,2019-09-26,36,35.6,103.21,16.14,0.55
550,Sioux Lookout,90,CA,2019-09-26,66,50.1,-91.92,11.0,4.1
551,Brae,6,GB,2019-09-26,93,60.4,-1.35,12.0,6.2
552,Marabba,100,SD,2019-09-26,69,12.35,32.18,26.34,5.72
553,Payo,30,ID,2019-09-26,41,-3.75,103.64,28.34,2.41
554,Flin Flon,0,CA,2019-09-26,78,54.77,-101.88,1.24,2.53
555,Markova,90,RU,2019-09-26,100,52.21,104.21,5.0,9.0
556,Cabedelo,0,BR,2019-09-26,88,-6.97,-34.84,23.0,2.1
557,Okha,0,RU,2019-09-26,59,53.59,142.95,13.24,3.83
