,City,Cloudiness,Country,Date,Humidity,Latitude,Longitude,Max Temperature,Wind Speed
0,Rio Grande,0,BR,2019-09-26,86,-32.03,-52.1,12.78,1.86
1,Qandala,19,SO,2019-09-26,78,11.47,49.87,29.03,4.63
2,Codrington,1,AU,2019-09-26,64,-28.95,153.24,25.56,3.1
3,Inirida,100,CO,2019-09-26,94,3.87,-67.92,24.25,0.94
4,Chuy,8,UY,2019-09-26,78,-33.69,-53.46,13.15,4.93
5,Mwense,48,ZM,2019-09-26,59,-10.39,28.7,17.15,2.11
6,Sur,45,OM,2019-09-26,62,22.57,59.53,28.12,2.45
7,Rikitea,92,PF,2019-09-26,69,-23.12,-134.97,22.2,4.61
8,Dwarka,40,IN,2019-09-26,83,28.58,77.04,28.33,3.6
9,Ushuaia,0,AR,2019-09-26,49,-54.81,-68.31,8.0,2.6
10,Shakawe,0,BW,2019-09-26,30,-18.36,21.84,12.53,3.74
11,Leningradskiy,100,RU,2019-09-26,80,69.38,178.42,-0.56,7.56
12,Coquimbo,90,CL,2019-09-26,76,-29.95,-71.34,13.0,2.6
13,Kruisfontein,0,ZA,2019-09-26,19,-34.0,24.73,18.45,2.89
14,Mataura,98,NZ,2019-09-26,78,-46.19,168.86,12.22,8.05
15,Albany,90,US,2019-09-26,87,42.65,-73.75,15.56,1.62
16,Sobolevo,0,RU,2019-09-26,82,54.43,31.9,3.4,1.51
17,Castro,0,CL,2019-09-26,76,-42.48,-73.76,12.0,1.5
18,Bathsheba,20,BB,2019-09-26,78,13.22,-59.52,27.0,3.1
19,Namibe,75,AO,2019-09-26,85,-15.19,12.15,20.31,0.5
20,Atuona,94,PF,2019-09-26,76,-9.8,-139.03,26.54,7.33
21,Aras,18,ES,2019-09-26,93,42.56,-2.36,14.44,1.5
22,Puerto Ayora,90,EC,2019-09-26,73,-0.74,-90.35,23.0,1.5
23,Hilo,20,US,2019-09-26,55,19.71,-155.08,32.0,3.6
24,Longyearbyen,75,NO,2019-09-26,86,78.22,15.63,4.0,2.6
25,Muzhi,100,RU,2019-09-26,94,65.4,64.7,-0.06,1.6
26,Peru,1,US,2019-09-26,63,41.33,-89.13,18.0,2.6
27,Yellowknife,20,CA,2019-09-26,59,62.45,-114.38,3.0,5.7
28,Bilma,0,NE,2019-09-26,10,18.69,12.92,30.31,2.45
29,Bara,100,NG,2019-09-26,74,10.41,10.6,24.02,1.85
30,Punta Arenas,0,CL,2019-09-26,45,-53.16,-70.91,9.0,7.2
31,Ponta do Sol,100,BR,2019-09-26,96,-20.63,-46.0,16.88,1.05
32,Kholm,0,AF,2019-09-26,31,36.69,67.7,23.89,1.34
33,Margate,75,AU,2019-09-26,45,-43.03,147.26,17.0,11.8
34,Sunrise Manor,1,US,2019-09-26,32,36.21,-115.07,30.56,4.1
35,Rio Gallegos,0,AR,2019-09-26,39,-51.62,-69.22,8.0,4.6
36,Vaini,75,IN,2019-09-26,100,15.34,74.49,20.0,4.1
37,Esil,100,KZ,2019-09-26,52,51.96,66.41,5.26,1.04
38,Kargat,68,RU,2019-09-26,58,55.19,80.28,4.27,6.08
39,Havre-Saint-Pierre,90,CA,2019-09-26,100,50.23,-63.6,8.0,5.1
40,Busselton,47,AU,2019-09-26,86,-33.64,115.35,13.33,0.89
41,Banjar,100,ID,2019-09-26,80,-7.37,108.54,23.43,0.81
42,Souillac,75,FR,2019-09-26,88,45.6,-0.6,17.0,4.6
43,Markala,36,ML,2019-09-26,59,13.69,-6.07,28.15,4.64
44,Norman Wells,75,CA,2019-09-26,65,65.28,-126.83,5.0,6.7
45,Posse,52,BR,2019-09-26,32,-14.08,-46.36,25.51,1.38
46,Cabo San Lucas,5,MX,2019-09-26,65,22.89,-109.91,28.33,7.2
47,Kybartai,0,LT,2019-09-26,94,54.64,22.75,8.12,2.28
48,Bredasdorp,0,ZA,2019-09-26,70,-34.53,20.04,17.78,1.08
49,Arraial do Cabo,100,BR,2019-09-26,93,-22.97,-42.02,19.3,2.07
50,Yulara,1,AU,2019-09-26,26,-25.24,130.99,26.0,0.5
51,Mahebourg,25,MU,2019-09-26,87,-20.41,57.7,22.22,1.34
52,Kavieng,5,PG,2019-09-26,74,-2.57,150.8,28.82,4.79
53,Fortuna,20,US,2019-09-26,72,40.6,-124.16,18.33,5.1
54,Kapaa,40,US,2019-09-26,79,22.08,-159.32,30.0,4.6
55,Saint George,40,GR,2019-09-26,77,39.45,22.34,21.0,1.76
56,Tasiilaq,83,GL,2019-09-26,86,65.61,-37.64,3.0,9.3
57,Deputatskiy,100,RU,2019-09-26,89,69.3,139.9,-6.74,1.97
58,Bethel,75,US,2019-09-26,87,60.79,-161.76,12.0,8.7
59,Hualmay,5,PE,2019-09-26,91,-11.1,-77.61,16.31,5.11
60,Bluff,16,AU,2019-09-26,47,-23.58,149.07,23.4,3.54
61,Kattivakkam,40,IN,2019-09-26,94,13.22,80.32,26.67,2.17
62,Cape Town,0,ZA,2019-09-26,67,-33.93,18.42,19.44,1.0
63,Itarema,15,BR,2019-09-26,74,-2.92,-39.92,24.89,5.18
64,Bambous Virieux,25,MU,2019-09-26,87,-20.34,57.76,22.22,1.34
65,Pisco,0,PE,2019-09-26,82,-13.71,-76.2,17.0,5.7
66,Palmer,20,AU,2019-09-26,72,-34.85,139.16,18.89,7.2
67,Esperance,90,AU,2019-09-26,93,-33.86,121.89,13.0,3.6
68,Sorland,0,NO,2019-09-26,76,67.67,12.69,11.72,5.05
69,Upernavik,100,GL,2019-09-26,56,72.79,-56.15,4.29,3.53
70,Arivonimamo,75,MG,2019-09-26,77,-19.01,47.18,15.0,4.6
71,Santander,40,PH,2019-09-26,74,9.42,123.33,30.0,4.1
72,Lakhimpur,0,IN,2019-09-26,92,27.24,94.1,15.57,1.07
73,Noumea,75,NC,2019-09-26,36,-22.28,166.46,27.0,3.1
74,Askarovo,40,RU,2019-09-26,92,53.34,58.51,-1.0,4.0
75,Lebedinyy,100,RU,2019-09-26,82,58.52,125.52,5.5,0.19
76,Yanaul,97,RU,2019-09-26,92,56.27,54.93,0.22,2.92
77,Saint-Philippe,75,CA,2019-09-26,87,45.36,-73.48,15.56,3.1
78,Ribeira Grande,0,PT,2019-09-26,88,38.52,-28.7,22.34,5.13
79,Chokurdakh,31,RU,2019-09-26,73,70.62,147.9,-1.06,5.76
80,Buala,66,SB,2019-09-26,70,-8.15,159.59,28.62,2.81
81,Mmabatho,0,ZA,2019-09-26,29,-25.85,25.61,9.0,1.5
82,Victoria,75,BN,2019-09-26,79,5.28,115.24,29.0,1.5
83,Hobart,75,AU,2019-09-26,45,-42.88,147.33,17.0,11.8
84,Tilichiki,92,RU,2019-09-26,74,60.47,166.1,7.6,3.37
85,Port Alfred,0,ZA,2019-09-26,75,-33.59,26.89,15.0,1.34
86,Lebu,78,ET,2019-09-26,84,8.96,38.73,11.58,1.4
87,Kahului,40,US,2019-09-26,59,20.89,-156.47,32.0,7.7
88,Sao Joao da Barra,100,BR,2019-09-26,97,-21.64,-41.05,18.53,0.53
89,Daru,100,PG,2019-09-26,84,-9.07,143.21,25.11,4.81
90,Nikolskoye,40,RU,2019-09-26,81,59.7,30.79,8.33,3.0
91,Acri,0,IT,2019-09-26,93,39.49,16.38,19.0,2.1
92,Severo-Kurilsk,84,RU,2019-09-26,82,50.68,156.12,7.67,14.08
93,Tuktoyaktuk,100,CA,2019-09-26,82,69.44,-133.03,3.0,12.22
94,Grand Gaube,62,MU,2019-09-26,87,-20.01,57.66,22.22,1.34
95,Northam,0,AU,2019-09-26,67,-31.65,116.67,17.0,3.1
96,Bangor,45,GB,2019-09-26,82,53.23,-4.13,15.0,10.8
97,Isiro,100,CD,2019-09-26,99,2.77,27.62,20.18,0.48
98,Port Elizabeth,33,US,2019-09-26,68,39.31,-74.98,24.0,3.28
99,High Rock,91,BS,2019-09-26,69,26.63,-78.28,26.27,5.94
100,Alofi,75,NU,2019-09-26,65,-19.06,-169.92,26.0,6.7
101,Niquelandia,52,BR,2019-09-26,57,-14.47,-48.46,22.85,2.54
102,Nioro,90,GM,2019-09-26,80,13.79,-15.05,25.63,3.02
103,Harer,1,US,2019-09-26,44,42.19,-111.17,21.11,5.1
104,Port Blair,97,IN,2019-09-26,80,11.67,92.75,27.56,3.44
105,Hermanus,0,ZA,2019-09-26,48,-34.42,19.24,22.22,2.52
106,Thompson,75,CA,2019-09-26,56,55.74,-97.86,5.0,3.1
107,Constitucion,90,MX,2019-09-26,52,23.99,-104.67,20.0,4.1
108,Kvarkeno,43,RU,2019-09-26,79,52.08,59.73,2.01,2.94
109,Villanueva,75,HN,2019-09-26,62,15.32,-87.99,31.0,4.6
110,Verkhnyaya Inta,100,RU,2019-09-26,97,65.99,60.32,1.17,2.59
111,Vilhena,82,BR,2019-09-26,70,-12.74,-60.15,24.55,0.71
112,New Norfolk,75,AU,2019-09-26,45,-42.78,147.06,17.0,11.8
113,Mitsamiouli,4,KM,2019-09-26,76,-11.38,43.28,25.14,12.68
114,Jamestown,12,AU,2019-09-26,31,-33.21,138.6,19.4,7.58
115,Redmond,75,US,2019-09-26,55,47.67,-122.12,19.0,2.1
116,Port Lincoln,44,AU,2019-09-26,78,-34.72,135.86,13.21,8.27
117,Fort Nelson,90,CA,2019-09-26,100,58.81,-122.69,2.0,4.6
118,Zonguldak,17,TR,2019-09-26,73,41.25,31.83,21.11,1.71
119,Beloha,78,MG,2019-09-26,85,-25.17,45.06,19.46,7.39
120,Along,34,IN,2019-09-26,93,28.17,94.8,11.84,1.98
121,Hambantota,20,LK,2019-09-26,100,6.12,81.12,23.0,1.0
122,Maldonado,0,UY,2019-09-26,76,-34.91,-54.96,13.0,4.1
123,Starobaltachevo,79,RU,2019-09-26,91,56.0,55.92,0.79,4.08
124,Santa Isabel do Rio Negro,92,BR,2019-09-26,92,-0.41,-65.02,24.0,0.7
125,Lazaro Cardenas,20,MX,2019-09-26,37,28.39,-105.62,29.0,4.1
126,Yuncheng,38,CN,2019-09-26,49,35.03,111.0,20.39,2.22
127,Georgetown,20,GY,2019-09-26,79,6.8,-58.16,29.0,4.1
128,Zhigansk,64,RU,2019-09-26,79,66.77,123.37,1.07,3.95
129,Kununurra,0,AU,2019-09-26,51,-15.77,128.74,30.0,3.1
130,Porto Novo,75,BR,2019-09-26,93,-23.68,-45.44,17.0,1.0
131,Filadelfia,0,PY,2019-09-26,21,-22.35,-60.04,23.87,2.88
132,Columbus,1,US,2019-09-26,61,32.46,-84.99,30.0,1.85
133,Sao Filipe,50,CV,2019-09-26,84,14.9,-24.5,25.29,5.94
134,Avera,1,US,2019-09-26,61,33.19,-82.53,29.44,1.89
135,Flagstaff,90,US,2019-09-26,63,35.2,-111.65,20.56,1.5
136,Loyga,100,RU,2019-09-26,97,61.08,44.61,0.51,2.83
137,Hasaki,40,JP,2019-09-26,73,35.73,140.83,25.0,1.5
138,Tambilil,6,PH,2019-09-26,74,5.96,124.67,28.0,1.0
139,Saldanha,0,PT,2019-09-26,71,41.42,-6.55,14.91,1.54
140,Salinopolis,12,BR,2019-09-26,81,-0.61,-47.36,27.7,8.27
141,Katherine,0,AU,2019-09-26,35,-14.47,132.26,31.0,3.1
142,Marsh Harbour,100,BS,2019-09-26,75,26.54,-77.06,26.4,5.72
143,Concordia,46,AR,2019-09-26,51,-31.4,-58.02,21.67,3.58
144,Qarqin,0,AF,2019-09-26,26,37.41,66.03,22.02,1.5
145,Hoquiam,90,US,2019-09-26,82,46.98,-123.89,17.22,4.1
146,Kodiak,1,US,2019-09-26,68,39.95,-94.76,22.0,4.1
147,Xuanhua,5,CN,2019-09-26,39,40.61,115.04,16.62,1.31
148,Zhigalovo,100,RU,2019-09-26,87,54.81,105.15,3.47,2.75
149,Aklavik,75,CA,2019-09-26,64,68.22,-135.01,4.0,3.6
150,Makakilo City,75,US,2019-09-26,70,21.35,-158.09,30.0,1.5
151,Westport,20,US,2019-09-26,100,41.14,-73.36,18.89,1.5
152,Loreto,0,PY,2019-09-26,36,-23.27,-57.32,22.64,2.42
153,Barrow,49,AR,2019-09-26,77,-38.31,-60.23,7.11,3.8
154,Kaitangata,88,NZ,2019-09-26,58,-46.28,169.85,12.78,10.28
155,Oistins,20,BB,2019-09-26,78,13.07,-59.53,27.0,3.1
156,Torbay,90,CA,2019-09-26,100,47.66,-52.73,11.11,7.2
157,Kampene,100,CD,2019-09-26,97,-3.59,26.67,20.87,1.05
158,Matamoros,40,US,2019-09-26,62,25.87,-97.51,30.0,3.1
159,Rabo de Peixe,75,PT,2019-09-26,94,37.8,-25.58,22.0,5.1
160,Oberstdorf,90,DE,2019-09-26,93,47.41,10.28,15.0,1.0
161,Atar,0,MR,2019-09-26,13,20.52,-13.05,34.66,1.53
162,Devils Lake,90,US,2019-09-26,100,48.11,-98.87,11.0,2.97
163,Coahuayana,100,MX,2019-09-26,86,18.62,-100.35,26.11,0.09
164,Bilibino,76,RU,2019-09-26,65,68.06,166.44,-3.41,1.76
165,Sisimiut,0,GL,2019-09-26,58,66.94,-53.67,7.06,2.9
166,Hithadhoo,100,MV,2019-09-26,76,-0.6,73.08,28.05,5.11
167,Tiksi,98,RU,2019-09-26,92,71.64,128.87,0.94,1.42
168,Sumenep,84,ID,2019-09-26,71,-7.02,113.87,26.23,1.78
169,Rosarito,75,CO,2019-09-26,73,4.91,-75.23,24.0,2.1
170,Guerrero Negro,8,MX,2019-09-26,76,27.97,-114.04,19.69,4.51
171,Carnarvon,0,ZA,2019-09-26,17,-30.97,22.13,12.62,3.11
172,Nome,1,US,2019-09-26,69,30.04,-94.42,28.0,2.1
173,Luau,44,CD,2019-09-26,40,-10.7,22.23,23.5,1.74
174,Mount Gambier,90,AU,2019-09-26,93,-37.83,140.78,9.0,9.8
175,Canberra,0,AU,2019-09-26,42,-35.3,149.1,17.78,7.7
176,Avarua,59,CK,2019-09-26,69,-21.21,-159.78,27.0,2.6
177,Fuxin,8,CN,2019-09-26,85,42.02,121.65,17.77,4.38
178,Haines Junction,81,CA,2019-09-26,63,60.75,-137.51,3.3,5.26
179,Manta,11,RO,2019-09-26,87,45.1,24.1,10.69,1.76
180,Sydney,0,AU,2019-09-26,35,-33.85,151.22,24.44,5.1
181,Yerbogachen,60,RU,2019-09-26,76,61.28,108.01,0.18,1.8
182,Khatanga,100,RU,2019-09-26,94,71.98,102.47,-0.01,3.99
183,Santa Maria del Oro,22,MX,2019-09-26,53,25.95,-105.37,23.95,4.47
184,Toyooka,40,JP,2019-09-26,83,35.55,134.82,26.0,4.1
185,Tias,90,ES,2019-09-26,78,28.96,-13.65,23.0,6.2
186,Itai,4,BR,2019-09-26,70,-23.42,-49.09,19.29,1.99
187,Korem,56,ET,2019-09-26,76,12.51,39.52,14.21,1.51
188,Dikson,100,RU,2019-09-26,93,73.51,80.55,1.75,3.97
189,Chimore,29,BO,2019-09-26,48,-16.98,-65.13,22.02,1.96
190,Karratha,0,AU,2019-09-26,25,-20.74,116.85,22.99,3.34
191,Sterling,1,US,2019-09-26,53,39.0,-77.4,24.44,1.5
192,Padang,100,ID,2019-09-26,84,-0.92,100.36,25.87,4.54
193,Dolny Kubin,75,SK,2019-09-26,100,49.21,19.3,11.11,2.1
194,Vardo,1,US,2019-09-26,64,39.62,-77.74,22.78,2.71
195,Geraldton,40,CA,2019-09-26,71,49.72,-86.95,10.0,5.1
196,Panlaitan,2,PH,2019-09-26,69,12.12,119.85,28.41,1.63
197,General Roca,0,AR,2019-09-26,28,-39.03,-67.58,23.0,5.7
198,Whitehorse,75,CA,2019-09-26,80,60.72,-135.06,5.56,4.1
199,Tabou,83,CI,2019-09-26,96,4.42,-7.36,23.52,1.6
200,San Patricio,0,PY,2019-09-26,59,-26.98,-56.83,18.03,3.03
201,Lata,25,IN,2019-09-26,89,30.78,78.62,1.91,0.85
202,Ahipara,70,NZ,2019-09-26,71,-35.17,173.16,19.44,8.84
203,Ambon,0,FR,2019-09-26,88,47.55,-2.56,17.0,4.1
204,Dunmore Town,98,BS,2019-09-26,77,25.5,-76.65,26.6,5.79
205,Qaanaaq,100,GL,2019-09-26,94,77.48,-69.36,-0.06,6.48
206,Muros,75,ES,2019-09-26,100,42.77,-9.06,18.33,2.1
207,Grand-Santi,39,GF,2019-09-26,93,4.27,-54.38,23.23,0.89
208,Kikwit,73,CD,2019-09-26,92,-5.04,18.82,22.06,1.11
209,Faanui,48,PF,2019-09-26,78,-16.48,-151.75,26.57,7.1
210,Nha Trang,20,VN,2019-09-26,58,12.24,109.19,29.0,3.1
211,Plettenberg Bay,0,ZA,2019-09-26,22,-34.05,23.37,21.42,1.89
212,Seoul,75,KR,2019-09-26,82,37.57,126.98,23.0,1.5
213,Airai,0,TL,2019-09-26,43,-8.93,125.41,28.35,0.61
214,Beringovskiy,78,RU,2019-09-26,70,63.05,179.32,9.43,3.86
215,Pop,23,UZ,2019-09-26,55,40.87,71.1,19.0,1.41
216,Rudnyy,0,KZ,2019-09-26,76,52.96,63.12,2.0,4.0
217,Ostrovnoy,86,RU,2019-09-26,93,68.05,39.51,3.41,5.53
218,Pangnirtung,6,CA,2019-09-26,32,66.15,-65.72,3.11,2.05
219,Tommot,86,RU,2019-09-26,82,58.97,126.27,7.15,0.87
220,Mayo,75,CA,2019-09-26,39,63.59,-135.9,9.0,2.6
221,Dalmatovo,57,RU,2019-09-26,95,56.26,62.94,-1.05,3.07
222,Touros,40,BR,2019-09-26,83,-5.2,-35.46,23.0,1.5
223,Vila Velha,0,BR,2019-09-26,74,-3.71,-38.6,27.0,4.6
224,Taltal,2,CL,2019-09-26,92,-25.41,-70.49,9.94,1.54
225,Hofn,100,IS,2019-09-26,98,64.25,-15.21,4.6,3.49
226,San Andres,6,PH,2019-09-26,73,13.32,122.68,28.45,0.6
227,Portland,20,US,2019-09-26,100,43.66,-70.25,16.11,1.05
228,Saskylakh,96,RU,2019-09-26,95,71.97,114.09,-0.57,3.78
229,Pajapan,75,MX,2019-09-26,74,18.26,-94.69,30.0,5.1
230,Mar del Plata,82,AR,2019-09-26,37,-46.43,-67.52,14.64,6.84
231,Nelson Bay,0,AU,2019-09-26,40,-32.72,152.14,23.89,6.7
232,Dourbali,83,TD,2019-09-26,74,11.81,15.86,24.22,2.39
233,Takoradi,64,GH,2019-09-26,95,4.89,-1.75,23.4,2.17
234,Marzuq,55,YE,2019-09-26,42,14.4,46.47,23.34,1.86
235,Chipata,0,ZM,2019-09-26,67,-13.64,32.65,13.58,5.11
236,Nemuro,20,JP,2019-09-26,55,43.32,145.57,17.0,1.0
237,Botucatu,31,BR,2019-09-26,95,-22.89,-48.44,15.38,1.75
238,North Platte,1,US,2019-09-26,53,41.12,-100.77,23.0,5.7
239,Iquique,90,CL,2019-09-26,67,-20.22,-70.14,16.0,3.1
240,San Cristobal,75,HN,2019-09-26,83,14.68,-86.92,29.0,2.1
241,Bubaque,78,GW,2019-09-26,78,11.28,-15.83,27.95,4.35
242,Mackenzie,90,CA,2019-09-26,40,55.34,-123.09,11.0,1.0
243,Ukiah,2,US,2019-09-26,53,39.15,-123.21,24.44,1.34
244,Mandalgovi,72,MN,2019-09-26,26,45.76,106.27,15.58,7.23
245,Teeli,54,RU,2019-09-26,85,51.01,90.2,0.68,1.48
246,Khamza,0,UZ,2019-09-26,55,40.42,71.51,19.0,1.23
247,Katsuura,75,JP,2019-09-26,83,33.93,134.5,25.56,1.5
248,Batagay,100,RU,2019-09-26,98,67.65,134.64,0.45,1.27
249,Poum,79,MK,2019-09-26,90,41.28,20.71,10.37,0.46
250,Raudeberg,59,NO,2019-09-26,51,61.99,5.14,16.0,11.3
251,Aleksandrovskiy Zavod,67,RU,2019-09-26,57,50.92,117.94,12.88,2.28
252,Vao,24,EE,2019-09-26,95,59.1,26.19,6.18,2.36
253,Kamakhyanagar,100,IN,2019-09-26,92,20.93,85.54,22.7,0.29
254,Chapais,1,CA,2019-09-26,100,49.78,-74.86,7.0,1.5
255,Krutikha,76,RU,2019-09-26,47,53.96,81.21,1.59,1.99
256,Taoudenni,24,ML,2019-09-26,11,22.68,-3.98,33.83,1.21
257,Bayir,0,TR,2019-09-26,93,37.27,28.22,17.0,2.1
258,Solnechnyy,0,RU,2019-09-26,63,50.72,136.64,9.82,1.23
259,Shitkino,17,RU,2019-09-26,94,56.37,98.35,-1.1,2.43
260,Nizwa,19,OM,2019-09-26,69,22.93,57.53,22.51,0.73
261,Chicama,20,PE,2019-09-26,87,-7.84,-79.15,16.0,3.6
262,Iqaluit,75,CA,2019-09-26,80,63.75,-68.52,5.0,11.8
263,Talas,4,KG,2019-09-26,97,42.52,72.24,13.89,2.19
264,Huambo,74,AO,2019-09-26,42,-12.78,15.73,18.49,0.8
265,Talcahuano,90,CL,2019-09-26,93,-36.72,-73.12,12.0,2.6
266,Ceres,67,BR,2019-09-26,79,-15.31,-49.6,20.5,2.29
267,Tamandare,85,BR,2019-09-26,55,-8.28,-70.75,27.61,0.41
268,Tuatapere,100,NZ,2019-09-26,78,-46.13,167.69,12.22,8.05
269,Egvekinot,100,RU,2019-09-26,96,66.32,-179.17,-1.72,3.69
270,Port Augusta,32,AU,2019-09-26,45,-32.49,137.76,25.0,5.7
271,Toccoa,40,US,2019-09-26,51,34.58,-83.33,29.0,2.26
272,Kempsey,0,AU,2019-09-26,24,-31.08,152.84,27.78,0.45
273,Mechanicsville,75,US,2019-09-26,78,37.62,-77.34,25.56,3.4
274,Provideniya,90,RU,2019-09-26,93,64.42,-173.23,10.0,9.0
275,Karpathos,10,GR,2019-09-26,83,35.51,27.21,21.0,3.1
276,Clearwater,1,US,2019-09-26,78,27.97,-82.8,29.0,2.51
277,Qeshm,56,IR,2019-09-26,83,26.96,56.27,29.0,3.1
278,Ugoofaaru,89,MV,2019-09-26,65,5.67,73.0,28.44,1.37
279,Arlit,0,NE,2019-09-26,10,18.74,7.39,33.42,4.64
280,Prince Rupert,90,CA,2019-09-26,76,54.32,-130.32,12.0,5.1
281,Remedios,98,CO,2019-09-26,98,7.03,-74.7,18.97,0.33
282,Koping,0,SE,2019-09-26,87,59.51,15.99,7.0,2.1
283,Narsaq,14,GL,2019-09-26,52,60.91,-46.05,6.0,1.0
284,Hearst,14,CA,2019-09-26,77,49.69,-83.67,8.12,2.41
285,Laguna,100,BZ,2019-09-26,94,16.17,-88.94,25.55,1.08
286,Lavrentiya,100,RU,2019-09-26,98,65.58,-170.99,2.81,7.48
287,Teahupoo,20,PF,2019-09-26,62,-17.83,-149.27,29.0,5.7
288,Chase,90,US,2019-09-26,83,38.35,-98.35,23.0,4.6
289,Katangli,0,RU,2019-09-26,62,51.71,143.23,11.89,5.17
290,Olginskaya,77,RU,2019-09-26,85,45.94,38.55,13.05,4.07
291,Bansgaon,90,IN,2019-09-26,100,26.54,83.29,24.0,3.1
292,Wewak,15,PG,2019-09-26,73,-3.55,143.63,27.9,2.06
293,Erzin,0,TR,2019-09-26,94,36.95,36.2,24.0,2.6
294,Butaritari,38,KI,2019-09-26,62,3.07,172.79,29.33,4.65
295,Chernyshevsk,100,RU,2019-09-26,84,52.51,117.01,13.22,2.19
296,Cidreira,0,BR,2019-09-26,83,-30.17,-50.22,16.64,2.67
297,Yumen,0,CN,2019-09-26,16,40.29,97.04,16.83,2.42
298,Kargasok,93,RU,2019-09-26,86,59.06,80.87,1.14,3.28
299,Fort Madison,40,US,2019-09-26,67,40.63,-91.32,19.44,2.1
300,Zheleznodorozhnyy,34,RU,2019-09-26,86,55.75,38.0,5.0,1.28
301,Wilmington,40,US,2019-09-26,88,39.75,-75.55,20.56,1.5
302,Agde,0,FR,2019-09-26,82,43.31,3.47,22.0,2.09
303,Nanortalik,0,GL,2019-09-26,77,60.14,-45.24,5.57,0.31
304,Challapata,12,BO,2019-09-26,60,-18.9,-66.78,11.4,5.38
305,Kongsberg,100,NO,2019-09-26,81,59.67,9.65,12.0,3.1
306,Maceio,0,BR,2019-09-26,94,-9.67,-35.74,21.0,2.6
307,Ilulissat,0,GL,2019-09-26,32,69.22,-51.1,4.0,4.1
308,La Paz,20,MX,2019-09-26,38,24.15,-110.32,32.0,3.6
309,Belaya Gora,43,RU,2019-09-26,68,68.54,146.19,-1.01,3.87
310,Kula,0,RS,2019-09-26,93,45.61,19.53,11.0,2.1
311,Baruun-Urt,75,MN,2019-09-26,34,46.68,113.28,15.23,7.36
312,Aksarka,70,RU,2019-09-26,93,66.56,67.8,-1.58,1.56
313,Horsham,98,AU,2019-09-26,70,-36.71,142.2,14.68,4.75
314,Honningsvag,100,NO,2019-09-26,96,70.98,25.97,7.54,6.39
315,Wajid,86,SO,2019-09-26,71,3.81,43.25,23.73,7.89
316,Myitkyina,0,MM,2019-09-26,86,25.38,97.4,20.13,0.75
317,Port Pirie,35,AU,2019-09-26,45,-33.18,138.01,19.0,5.7
318,Veraval,0,FR,2019-09-26,93,49.65,0.71,15.0,4.6
319,Kamaishi,0,JP,2019-09-26,72,39.28,141.86,16.0,1.5
320,Bealanana,68,MG,2019-09-26,87,-14.54,48.75,13.18,2.54
321,Vestmannaeyjar,97,IS,2019-09-26,89,63.44,-20.27,10.53,4.44
322,Zlobin,0,HR,2019-09-26,93,45.29,14.65,18.33,1.28
323,Douentza,0,ML,2019-09-26,41,15.01,-2.95,30.15,3.05
324,Mikkeli,42,FI,2019-09-26,98,61.69,27.27,6.67,1.49
325,Santa Cruz do Capibaribe,28,BR,2019-09-26,89,-7.95,-36.21,18.78,3.89
326,Warmbad,100,DE,2019-09-26,87,50.67,13.08,16.67,3.6
327,Sitka,93,US,2019-09-26,83,37.17,-99.65,21.11,3.13
328,Namatanai,46,PG,2019-09-26,72,-3.66,152.44,27.84,4.47
329,Meadow Lake,75,CA,2019-09-26,75,54.13,-108.44,7.0,2.1
330,Burgeo,47,CA,2019-09-26,88,47.61,-57.61,12.67,0.87
331,Zarubino,36,RU,2019-09-26,63,42.65,131.06,19.98,0.78
332,Temeni,51,GR,2019-09-26,74,38.24,22.12,20.0,1.81
333,Shakiso,96,ET,2019-09-26,99,5.77,38.9,11.96,0.38
334,Lompoc,1,US,2019-09-26,60,34.64,-120.46,24.0,3.6
335,Aasiaat,1,GL,2019-09-26,55,68.71,-52.87,4.9,12.25
336,Fairbanks,90,US,2019-09-26,80,64.84,-147.72,6.0,3.6
337,Gizo,0,IL,2019-09-26,83,31.8,34.94,23.33,1.0
338,Kirakira,61,SB,2019-09-26,70,-10.46,161.92,29.06,2.29
339,Cuamba,27,MZ,2019-09-26,78,-14.8,36.54,14.89,4.52
340,Lypnyazhka,100,UA,2019-09-26,56,48.45,31.08,13.65,4.02
341,Jhawarian,0,PK,2019-09-26,58,32.36,72.63,26.84,2.08
342,Toora-Khem,100,RU,2019-09-26,90,52.47,96.11,2.08,0.93
343,Escarcega,93,MX,2019-09-26,78,18.61,-90.75,27.48,3.04
344,Kawalu,100,ID,2019-09-26,77,-7.38,108.21,21.03,2.4
345,Port Hedland,0,AU,2019-09-26,36,-20.31,118.58,27.0,5.7
346,Worland,1,US,2019-09-26,19,44.02,-107.96,24.44,3.1
347,Cherskiy,85,RU,2019-09-26,42,68.75,161.3,2.45,1.93
348,Lagoa,0,PT,2019-09-26,88,37.14,-8.45,20.0,1.0
349,East London,0,ZA,2019-09-26,20,-33.02,27.91,18.4,2.09
350,Ugento,40,IT,2019-09-26,94,39.93,18.16,20.56,2.1
351,Dabat,100,ET,2019-09-26,73,12.98,37.77,20.1,0.69
352,Puerto Baquerizo Moreno,75,EC,2019-09-26,83,-0.9,-89.6,21.0,4.6
353,Fallon,1,US,2019-09-26,71,46.84,-105.12,13.0,6.7
354,Sao Francisco,0,BR,2019-09-26,64,-25.65,-53.85,20.0,2.6
355,Meulaboh,84,ID,2019-09-26,83,4.14,96.13,26.61,3.86
356,Hobyo,37,SO,2019-09-26,83,5.35,48.53,24.19,8.62
357,Rochegda,100,RU,2019-09-26,97,62.67,43.41,0.88,2.52
358,Milkovo,17,BG,2019-09-26,67,41.53,24.68,20.0,6.2
359,Gavrilov Posad,81,RU,2019-09-26,92,56.56,40.12,2.8,2.23
360,Saint-Georges,100,CA,2019-09-26,97,46.12,-70.67,12.22,0.89
361,Necochea,14,AR,2019-09-26,85,-38.55,-58.74,7.22,0.89
362,Poltava,100,UA,2019-09-26,31,49.59,34.55,12.79,2.41
363,San Quintin,0,PH,2019-09-26,78,17.54,120.52,26.69,0.86
364,Ciudad Ojeda,56,VE,2019-09-26,72,10.22,-71.33,28.87,3.06
365,Ancud,0,CL,2019-09-26,76,-41.87,-73.83,12.0,1.5
366,Kenai,1,US,2019-09-26,53,60.55,-151.26,11.11,4.1
367,Passo de Camaragibe,0,BR,2019-09-26,94,-9.24,-35.49,21.0,2.6
368,Paola,0,IT,2019-09-26,93,39.36,16.04,19.0,2.1
369,Srednekolymsk,100,RU,2019-09-26,62,67.46,153.71,-0.3,2.45
370,Bijar,0,IR,2019-09-26,35,35.87,47.6,12.76,2.94
371,Jaguarao,0,BR,2019-09-26,69,-32.57,-53.38,12.32,2.83
372,Chara,40,GR,2019-09-26,77,39.42,22.43,21.0,1.76
373,Raul Soares,100,BR,2019-09-26,94,-20.1,-42.45,18.43,0.62
374,Mporokoso,44,ZM,2019-09-26,65,-9.37,30.12,15.99,4.74
375,Dingle,0,PH,2019-09-26,77,11.0,122.67,26.92,1.72
376,Jalu,0,LY,2019-09-26,43,29.03,21.55,24.01,3.92
377,Kuching,75,MY,2019-09-26,83,1.56,110.34,27.0,2.6
378,Barentu,0,ER,2019-09-26,63,15.11,37.59,23.93,2.08
379,Marrakesh,0,MA,2019-09-26,56,31.63,-7.99,23.0,2.1
380,Yendi,88,GH,2019-09-26,93,9.45,0.0,24.8,1.96
381,Mastic Beach,90,US,2019-09-26,88,40.77,-72.85,19.44,5.07
382,Mackay,75,CA,2019-09-26,80,53.65,-115.58,5.0,4.1
383,Ibra,35,OM,2019-09-26,75,22.69,58.55,22.18,0.68
384,Tual,92,ID,2019-09-26,85,-5.67,132.75,25.67,7.69
385,Amuntai,97,ID,2019-09-26,91,-2.42,115.25,24.44,0.55
386,Marsa Matruh,0,EG,2019-09-26,83,31.35,27.25,23.0,3.03
387,Bozhou,12,CN,2019-09-26,55,33.86,115.78,21.46,1.86
388,Auki,97,NG,2019-09-26,79,12.18,6.51,24.73,7.29
389,Rio Branco,0,BR,2019-09-26,94,-9.98,-67.82,22.0,1.52
390,Maragogi,9,BR,2019-09-26,91,-9.01,-35.22,20.37,1.21
391,Harper,1,US,2019-09-26,37,30.3,-99.24,30.0,3.6
392,Maraa,85,BR,2019-09-26,65,-1.83,-65.37,28.03,0.38
393,Durango,90,MX,2019-09-26,52,24.02,-104.67,20.0,4.1
394,Santa Maria del Rio,40,MX,2019-09-26,29,21.8,-100.75,26.0,4.1
395,Clyde River,1,CA,2019-09-26,93,70.47,-68.59,3.0,2.6
396,Nadvoitsy,100,RU,2019-09-26,98,63.89,34.27,4.85,1.61
397,Shiyan,0,CN,2019-09-26,66,32.65,110.78,23.89,0.45
398,Neryungri,100,RU,2019-09-26,94,56.66,124.71,6.15,0.67
399,San Ramon,100,NI,2019-09-26,98,12.92,-85.84,20.88,1.58
400,Baykit,65,RU,2019-09-26,98,61.68,96.39,-3.13,1.06
401,Wanlaweyn,100,SO,2019-09-26,72,2.62,44.89,25.29,7.31
402,Piacabucu,41,BR,2019-09-26,78,-10.41,-36.43,23.54,3.77
403,Prainha,42,BR,2019-09-26,88,-1.8,-53.48,23.38,1.27
404,West Plains,1,US,2019-09-26,68,36.73,-91.85,22.0,1.5
405,Yar-Sale,32,RU,2019-09-26,94,66.83,70.83,-0.13,2.63
406,Tsumeb,0,NA,2019-09-26,22,-19.25,17.72,14.33,8.53
407,Acapulco,75,MX,2019-09-26,79,16.86,-99.88,29.0,4.6
408,Birao,100,CF,2019-09-26,91,10.3,22.78,20.52,4.12
409,Barpeta,75,IN,2019-09-26,100,26.33,91.01,25.0,0.65
410,Goderich,12,CA,2019-09-26,56,43.74,-81.71,17.78,4.02
411,Atambua,0,ID,2019-09-26,70,-9.11,124.89,25.61,3.51
412,Selikhino,31,RU,2019-09-26,80,50.37,137.51,9.37,4.95
413,Tianpeng,0,CN,2019-09-26,61,28.88,112.34,21.8,1.36
414,Faya,0,SA,2019-09-26,49,18.39,42.45,20.0,3.6
415,North Bend,75,US,2019-09-26,93,43.41,-124.22,18.33,7.7
416,Ulladulla,0,AU,2019-09-26,26,-35.36,150.48,22.0,7.7
417,Qaqortoq,14,GL,2019-09-26,56,60.72,-46.03,5.0,1.0
418,Pytalovo,0,RU,2019-09-26,85,57.06,27.92,2.96,0.4
419,Aketi,100,CD,2019-09-26,95,2.74,23.78,20.82,0.56
420,Santiago de Cuba,90,CU,2019-09-26,94,20.03,-75.83,27.0,2.6
421,Alice Town,51,BS,2019-09-26,73,25.72,-79.3,26.5,6.98
422,Aljezur,0,PT,2019-09-26,74,37.31,-8.8,20.0,5.36
423,Husavik,100,CA,2019-09-26,94,50.56,-96.99,7.78,1.34
424,Albanel,75,CA,2019-09-26,81,48.88,-72.44,11.0,3.6
425,Craigieburn,0,AU,2019-09-26,47,-37.6,144.94,20.0,14.4
426,Castleblayney,90,GB,2019-09-26,93,54.12,-6.74,11.0,4.6
427,Bokaa,0,BW,2019-09-26,29,-24.43,26.02,11.0,3.1
428,Romny,100,UA,2019-09-26,80,50.74,33.49,9.83,3.79
429,Gamba,100,CN,2019-09-26,70,28.28,88.52,2.01,1.21
430,Santo Antonio do Ica,66,BR,2019-09-26,74,-3.1,-67.94,26.72,0.79
431,Robe,62,ET,2019-09-26,69,7.12,40.01,8.39,2.23
432,Igdir,0,IR,2019-09-26,54,37.52,45.24,12.0,3.1
433,Lexington,1,US,2019-09-26,59,38.05,-84.5,23.0,3.09
434,Vila,40,IT,2019-09-26,100,45.18,8.4,18.33,1.5
435,Alcains,0,PT,2019-09-26,94,39.92,-7.46,12.22,0.45
436,Acari,53,BR,2019-09-26,65,-6.44,-36.64,23.7,10.67
437,Te Anau,100,NZ,2019-09-26,90,-45.41,167.72,6.59,3.4
438,Hokitika,89,NZ,2019-09-26,75,-42.72,170.96,11.84,6.23
439,Mahibadhoo,75,MV,2019-09-26,71,3.78,72.97,27.59,2.77
440,Hervey Bay,40,AU,2019-09-26,50,-25.3,152.85,25.56,5.1
441,Panguna,0,PG,2019-09-26,73,-6.32,155.48,27.28,0.94
442,Sao Felix do Xingu,58,BR,2019-09-26,82,-6.64,-51.99,23.29,0.94
443,Lima,90,PE,2019-09-26,82,-12.06,-77.04,17.0,4.1
444,Denpasar,75,ID,2019-09-26,88,-8.65,115.22,26.0,6.2
445,Komsomolskiy,93,RU,2019-09-26,96,67.55,63.78,-2.1,2.98
446,Niigata,0,JP,2019-09-26,77,37.91,139.04,25.56,0.5
447,Wanning,75,AT,2019-09-26,93,48.64,13.53,15.56,1.0
448,Alyangula,0,AU,2019-09-26,38,-13.85,136.42,31.0,3.6
449,Olinda,0,AU,2019-09-26,47,-37.84,145.39,20.0,14.4
450,Kibaya,64,RW,2019-09-26,87,-2.2,30.56,17.35,0.67
451,Kurilsk,0,RU,2019-09-26,51,45.23,147.88,13.54,5.28
452,Ramhormoz,0,IR,2019-09-26,71,31.28,49.6,23.49,1.15
453,Oksfjord,90,NO,2019-09-26,81,70.24,22.35,10.0,2.1
454,Burnie,99,AU,2019-09-26,91,-41.05,145.91,11.85,4.24
455,Saint-Pierre,90,FR,2019-09-26,82,48.95,4.24,18.0,8.2
456,Ust-Nera,100,RU,2019-09-26,85,64.57,143.24,-3.41,2.65
457,Masterton,25,NZ,2019-09-26,71,-40.95,175.66,13.89,5.36
458,Vostok,0,RU,2019-09-26,51,46.45,135.83,15.18,0.56
459,Fuerte Olimpo,48,BR,2019-09-26,39,-21.04,-57.87,25.77,2.64
460,Hampton,75,US,2019-09-26,70,32.88,-81.13,31.0,3.1
461,Kaseda,75,JP,2019-09-26,78,31.42,130.32,25.0,5.1
462,Ruteng,2,ID,2019-09-26,59,-8.61,120.46,28.01,1.04
463,Belmonte,0,PT,2019-09-26,94,40.36,-7.35,12.22,0.45
464,Pochutla,90,MX,2019-09-26,78,15.74,-96.47,29.0,0.41
465,Yerofey Pavlovich,100,RU,2019-09-26,86,53.97,121.97,9.24,1.56
466,Half Moon Bay,1,US,2019-09-26,77,37.46,-122.43,28.0,4.6
467,Srikakulam,100,IN,2019-09-26,90,18.29,83.89,23.96,0.79
468,Chulman,100,RU,2019-09-26,94,56.84,124.9,6.15,0.67
469,Slave Lake,90,CA,2019-09-26,87,55.28,-114.77,7.0,2.92
470,Maloarkhangelsk,100,RU,2019-09-26,96,52.4,36.5,7.8,2.62
471,Shingu,75,JP,2019-09-26,83,33.72,135.99,25.0,1.5
472,Herat,0,AF,2019-09-26,22,34.35,62.22,17.74,0.43
473,Isangel,75,VU,2019-09-26,57,-19.55,169.27,27.0,4.1
474,Yamada,0,JP,2019-09-26,60,36.58,137.08,27.22,1.0
475,Markivka,93,UA,2019-09-26,48,49.52,39.57,8.3,2.39
476,Mareeba,40,AU,2019-09-26,48,-16.99,145.42,29.0,8.2
477,Svetlogorsk,40,RU,2019-09-26,92,53.14,59.15,-1.0,4.0
478,Burgos,8,ES,2019-09-26,62,42.34,-3.7,13.33,1.0
479,Marystown,26,CA,2019-09-26,94,47.17,-55.16,12.49,2.9
480,Matara,87,BI,2019-09-26,85,-3.48,29.48,11.85,0.67
481,Karpogory,100,RU,2019-09-26,96,64.0,44.44,4.1,2.79
482,Nalut,0,LY,2019-09-26,75,31.86,10.98,21.37,6.23
483,Vestmanna,100,FO,2019-09-26,87,62.16,-7.17,12.0,10.3
484,Lander,1,US,2019-09-26,26,42.83,-108.73,26.0,4.1
485,Linfen,48,CN,2019-09-26,37,36.09,111.52,21.56,2.19
486,Panzhihua,63,CN,2019-09-26,87,26.59,101.72,13.11,0.21
487,Caceres,60,CO,2019-09-26,94,5.53,-74.53,19.9,1.54
488,Sakaiminato,75,JP,2019-09-26,78,35.55,133.23,23.0,0.5
489,Inhambane,41,MZ,2019-09-26,84,-23.87,35.38,14.85,2.33
490,Brainerd,40,US,2019-09-26,87,46.36,-94.2,13.33,5.16
491,Mwingi,61,KE,2019-09-26,85,-0.93,38.07,17.15,5.47
492,Virginia Beach,40,US,2019-09-26,65,36.85,-75.98,29.0,8.2
493,Lensk,100,RU,2019-09-26,89,60.71,114.91,2.85,3.16
494,Babina,100,IN,2019-09-26,90,25.24,78.47,23.23,4.49
495,Lorengau,9,PG,2019-09-26,70,-2.02,147.27,29.29,4.48
496,Hue,40,VN,2019-09-26,88,16.47,107.58,26.0,2.6
497,Broken Hill,75,AU,2019-09-26,13,-31.97,141.45,23.0,6.2
498,Sioux Lookout,90,CA,2019-09-26,58,50.1,-91.92,12.0,2.1
499,Xining,2,CN,2019-09-26,51,36.62,101.77,5.92,0.46
500,Tefe,77,BR,2019-09-26,75,-3.35,-64.71,25.96,0.41
501,San Rafael,37,AR,2019-09-26,23,-34.61,-68.33,23.01,4.14
502,Novoagansk,100,RU,2019-09-26,96,61.94,76.66,0.54,5.32
503,Suntar,80,RU,2019-09-26,82,62.16,117.65,2.26,0.41
504,Fundao,75,BR,2019-09-26,94,-19.93,-40.4,22.0,1.0
505,Minden,1,US,2019-09-26,68,40.5,-98.95,21.0,7.2
506,Ilebo,92,CD,2019-09-26,95,-4.33,20.59,21.08,1.74
507,Severnoye,82,RU,2019-09-26,88,54.09,52.54,0.5,3.17
508,San Pedro,62,AR,2019-09-26,58,-33.68,-59.66,17.22,0.89
509,Launceston,90,AU,2019-09-26,87,-41.43,147.14,12.22,11.8
510,Anchorage,1,US,2019-09-26,66,61.22,-149.89,10.56,3.1
511,Calabozo,83,VE,2019-09-26,83,8.92,-67.43,25.16,0.53
512,Berlevag,100,NO,2019-09-26,97,70.86,29.09,7.11,6.52
513,Tuljapur,100,IN,2019-09-26,94,18.01,76.07,21.94,3.12
514,Maltahohe,14,NA,2019-09-26,22,-24.83,16.98,12.06,7.13
515,Andover,90,US,2019-09-26,48,45.23,-93.29,18.33,4.1
516,Taybad,0,IR,2019-09-26,28,34.74,60.78,19.47,1.52
517,Pital,25,CO,2019-09-26,92,2.27,-75.81,14.14,1.76
518,Oranjestad,20,AW,2019-09-26,74,12.52,-70.03,30.0,3.6
519,El Real de Santa Maria,100,PA,2019-09-26,96,8.11,-77.73,23.42,0.55
520,Farmington,1,US,2019-09-26,19,36.73,-108.21,26.0,9.3
521,Sadri,96,IN,2019-09-26,75,25.19,73.45,26.76,3.45
522,Mantua,5,IT,2019-09-26,87,45.16,10.79,17.78,1.0
523,Todos Santos,20,MX,2019-09-26,74,23.45,-110.23,28.89,5.1
524,Preobrazheniye,73,RU,2019-09-26,64,42.9,133.91,19.0,1.01
525,Bazarnyy Syzgan,100,RU,2019-09-26,88,53.75,46.75,2.28,2.51
526,Magadan,0,RU,2019-09-26,47,59.56,150.8,4.66,7.04
527,Carutapera,14,BR,2019-09-26,79,-1.2,-46.02,26.47,3.55
528,Sao Gabriel da Cachoeira,77,BR,2019-09-26,89,-0.13,-67.09,24.84,1.23
529,Akhalgori,40,GE,2019-09-26,82,42.13,44.48,17.0,4.6
530,Passau,75,AT,2019-09-26,93,48.57,13.46,15.56,1.0
531,Rayong,20,TH,2019-09-26,78,12.68,101.28,31.67,3.1
532,Severo-Yeniseyskiy,76,RU,2019-09-26,96,60.37,93.04,-2.61,3.09
533,Hargeysa,26,SO,2019-09-26,62,9.56,44.06,22.14,9.6
534,Mahoba,100,IN,2019-09-26,88,25.29,79.88,24.64,4.7
535,Miri,99,NG,2019-09-26,77,10.31,9.75,22.98,2.26
536,Boshnyakovo,0,RU,2019-09-26,72,49.65,142.17,11.22,6.51
537,Camacha,40,PT,2019-09-26,60,33.08,-16.33,22.0,5.1
538,Shar,99,NG,2019-09-26,93,7.3,8.73,23.31,1.53
539,Bahia de Caraquez,90,EC,2019-09-26,78,-0.6,-80.42,24.0,4.1
540,Ca Mau,100,VN,2019-09-26,85,9.18,105.15,26.7,1.99
541,Kaa-Khem,97,RU,2019-09-26,85,51.7,94.56,2.4,1.53
542,Caxias,0,BR,2019-09-26,62,-4.87,-43.35,29.0,0.8
543,Goksun,0,TR,2019-09-26,68,38.02,36.5,21.0,2.1
544,Beyneu,74,KZ,2019-09-26,67,45.32,55.19,12.24,5.56
545,Dunedin,71,NZ,2019-09-26,63,-45.87,170.5,13.33,10.73
546,Narbonne,0,FR,2019-09-26,82,43.18,3.0,18.89,1.16
547,Waiuku,5,NZ,2019-09-26,77,-37.25,174.73,16.67,8.7
548,Sivaki,2,RU,2019-09-26,73,52.63,126.75,13.19,4.12
549,Kurya,43,RU,2019-09-26,70,51.6,82.29,4.01,1.48
550,Manaure,90,CO,2019-09-26,94,11.78,-72.45,24.0,1.5
551,Druzhba,100,UA,2019-09-26,94,52.05,33.94,8.56,2.15
552,Yatou,75,CM,2019-09-26,100,3.63,9.81,25.0,0.5
553,Udachnyy,90,RU,2019-09-26,85,66.42,112.4,0.0,2.0
554,Guadalupe y Calvo,14,MX,2019-09-26,90,26.09,-106.96,17.64,1.29
555,Shache,0,CN,2019-09-26,79,38.42,77.24,20.0,2.34
556,Sri Aman,75,MY,2019-09-26,94,1.24,111.46,25.0,1.5
557,Huarmey,5,PE,2019-09-26,93,-10.07,-78.15,16.3,5.47
558,Havelock,1,US,2019-09-26,74,34.88,-76.9,27.22,5.7
559,Pevek,63,RU,2019-09-26,68,69.7,170.27,0.42,6.1
560,Hisor,0,TJ,2019-09-26,62,38.53,68.55,15.0,1.0
561,Cervo,100,BR,2019-09-26,91,-22.19,-46.24,15.08,0.96
562,Vila Franca do Campo,75,PT,2019-09-26,94,37.72,-25.43,22.0,5.1
563,Vanimo,56,PG,2019-09-26,72,-2.67,141.3,28.12,3.01
564,Ranau,75,MY,2019-09-26,70,5.95,116.67,30.0,2.1
